[{"line":"A260","direction0":{"name":"БУЛ. ПРАГА - КВ. ГОРНА БАНЯ","stops":[{"id":"A0366","name":"БУЛ. ПРАГА","latitude":42.6891006765,"longitude":23.3133019893},{"id":"A0355","name":"БУЛ. ПЕНЧО СЛАВЕЙКОВ","latitude":42.6873803622,"longitude":23.3108051059},{"id":"A1035","name":"УМБАЛ АЛЕКСАНДРОВСКА","latitude":42.6858642612,"longitude":23.3063075025},{"id":"A0418","name":"ВМА","latitude":42.6847323033,"longitude":23.3020618321},{"id":"A2543","name":"БУЛ. ЦАР БОРИС ІІІ","latitude":42.6865436162,"longitude":23.2990794912},{"id":"A0638","name":"Ж.К. КРАСНО СЕЛО","latitude":42.6784427839,"longitude":23.284139872},{"id":"A0875","name":"КВ. ОВЧА КУПЕЛ","latitude":42.6715774605,"longitude":23.2720469131},{"id":"A0888","name":"КВ. ПАВЛОВО","latitude":42.6678300099,"longitude":23.2654249784},{"id":"A0388","name":"БУЛ. ЦАР БОРИС ІІІ","latitude":42.6658263887,"longitude":23.2591393788},{"id":"A0347","name":"БУЛ. НИКОЛА ПЕТКОВ","latitude":42.6696426912,"longitude":23.2544014182},{"id":"A2049","name":"УЛ. МОНТЕВИДЕО","latitude":42.6721369994,"longitude":23.251323507},{"id":"A0766","name":"ИНСТИТУТ ПО ОРТОПЕДИЯ","latitude":42.6727161916,"longitude":23.244604844},{"id":"A0480","name":"ГАРА ГОРНА БАНЯ","latitude":42.6736015437,"longitude":23.2403401968},{"id":"A2224","name":"УЛ. УРАЛ","latitude":42.6773488297,"longitude":23.2409258141},{"id":"A2322","name":"ХОТЕЛ ГОРНА БАНЯ","latitude":42.6774833892,"longitude":23.2375212546},{"id":"A0037","name":"53-ТО ОУ","latitude":42.67683805,"longitude":23.2349624281},{"id":"A2464","name":"УЛ. МАК","latitude":42.6761182061,"longitude":23.2320383074},{"id":"A0829","name":"КВ. ГОРНА БАНЯ","latitude":42.6757162882,"longitude":23.2286050548}]},"direction1":{"name":"КВ. ГОРНА БАНЯ - БУЛ. ПРАГА","stops":[{"id":"A0829","name":"КВ. ГОРНА БАНЯ","latitude":42.6757162882,"longitude":23.2286050548},{"id":"A2465","name":"УЛ. МАК","latitude":42.676161187,"longitude":23.2325121143},{"id":"A0038","name":"53-ТО ОУ","latitude":42.6771466699,"longitude":23.2351796924},{"id":"A2323","name":"ХОТЕЛ ГОРНА БАНЯ","latitude":42.6766547918,"longitude":23.2385822754},{"id":"A0483","name":"ГАРА ГОРНА БАНЯ","latitude":42.674312111,"longitude":23.2402003981},{"id":"A0493","name":"ИНСТИТУТ ПО ОРТОПЕДИЯ","latitude":42.6718588845,"longitude":23.2430485983},{"id":"A0765","name":"ДИПЛОМАТИЧЕСКИ КЛУБ","latitude":42.6729421429,"longitude":23.2465526678},{"id":"A2050","name":"УЛ. МОНТЕВИДЕО","latitude":42.6715874964,"longitude":23.2517923998},{"id":"A0350","name":"БУЛ. НИКОЛА ПЕТКОВ","latitude":42.6687198469,"longitude":23.2551931383},{"id":"A0391","name":"БУЛ. ЦАР БОРИС ІІІ","latitude":42.6654343347,"longitude":23.2608161103},{"id":"A0889","name":"КВ. ПАВЛОВО","latitude":42.6677740072,"longitude":23.2656389721},{"id":"A0876","name":"КВ. ОВЧА КУПЕЛ","latitude":42.6720867191,"longitude":23.2732242765},{"id":"A0636","name":"Ж.К. КРАСНО СЕЛО","latitude":42.6791005082,"longitude":23.2856129447},{"id":"A0392","name":"БУЛ. ЦАР БОРИС ІІІ","latitude":42.6874188087,"longitude":23.3011679665},{"id":"A1296","name":"ПЛ. РУСКИ ПАМЕТНИК","latitude":42.6915548675,"longitude":23.31115219},{"id":"A0366","name":"БУЛ. ПРАГА","latitude":42.6891006765,"longitude":23.3133019893}]}},{"line":"A285","direction0":{"name":"Ж.К. ХАДЖИ ДИМИТЪР - Ж.К. ВРЪБНИЦА-2","stops":[{"id":"A0691","name":"Ж.К. ХАДЖИ ДИМИТЪР","latitude":42.7107929472,"longitude":23.3616041888},{"id":"A1910","name":"УЛ. ГИНЦИ","latitude":42.708302772,"longitude":23.3610852534},{"id":"A2147","name":"УЛ. ПРОФ. ИВ. ШИШМАНОВ","latitude":42.7074391198,"longitude":23.3593334542},{"id":"A1947","name":"УЛ. ЗЛАТИЦА","latitude":42.7074763474,"longitude":23.3535579122},{"id":"A2042","name":"УЛ. МАКГАХАН","latitude":42.7064987109,"longitude":23.3501786588},{"id":"A2223","name":"УЛ. УОШБЪРН","latitude":42.7070944806,"longitude":23.3450140192},{"id":"A0698","name":"СОФИЯ МЕЛ АД","latitude":42.706974578,"longitude":23.3387592883},{"id":"A1311","name":"ПЛ. СТОЧНА ГАРА","latitude":42.7050587196,"longitude":23.3309237046},{"id":"A1275","name":"ПЛ. ЛЪВОВ МОСТ","latitude":42.7050852558,"longitude":23.3254221059},{"id":"A1327","name":"ЦЕНТРАЛНА ГАРА","latitude":42.7111092751,"longitude":23.3207441751},{"id":"A2080","name":"УЛ. ОПЪЛЧЕНСКА","latitude":42.7134169393,"longitude":23.3157165473},{"id":"A1114","name":"НАДЛЕЗ НАДЕЖДА","latitude":42.7148619678,"longitude":23.3118620435},{"id":"A2662","name":"МЕТРОСТАНЦИЯ ХАН КУБРАТ","latitude":42.7225324086,"longitude":23.3071642843},{"id":"A2808","name":"УЛ. РЕПУБЛИКА","latitude":42.7236859693,"longitude":23.3041742022},{"id":"A1884","name":"УЛ. ВЪЗРОЖДЕНСКА","latitude":42.7234770724,"longitude":23.3007063219},{"id":"A2004","name":"УЛ. КОНСТАНТИН БОДИН","latitude":42.7254501765,"longitude":23.2917348459},{"id":"A2232","name":"УЛ. ХАН КУБРАТ","latitude":42.7271892112,"longitude":23.2899895551},{"id":"A0044","name":"8-МИ ДКЦ","latitude":42.7302662287,"longitude":23.2938374902},{"id":"A0331","name":"УЛ. ХРИСТО СИЛЯНОВ","latitude":42.7327868792,"longitude":23.2958917205},{"id":"A0334","name":"БУЛ. ЛОМСКО ШОСЕ","latitude":42.735969932,"longitude":23.2940366256},{"id":"A0240","name":"БЛ. 603 Ж.К. ВРЪБНИЦА-2","latitude":42.7392961919,"longitude":23.2945138893},{"id":"A0594","name":"Ж.К. ВРЪБНИЦА-2","latitude":42.739391627,"longitude":23.2906972577}]},"direction1":{"name":"Ж.К. ВРЪБНИЦА-2 - Ж.К. ХАДЖИ ДИМИТЪР","stops":[{"id":"A0594","name":"Ж.К. ВРЪБНИЦА-2","latitude":42.739391627,"longitude":23.2906972577},{"id":"A0239","name":"БЛ. 603 Ж.К. ВРЪБНИЦА-2","latitude":42.7387004696,"longitude":23.2946570148},{"id":"A0333","name":"БУЛ. ЛОМСКО ШОСЕ","latitude":42.7360548774,"longitude":23.2939669312},{"id":"A2658","name":"УЛ. ХРИСТО СИЛЯНОВ","latitude":42.7317952943,"longitude":23.2955587022},{"id":"A6217","name":"УЛ. ЦАРЕВЕЦ","latitude":42.7297970811,"longitude":23.2930958236},{"id":"A0043","name":"8-МИ ДКЦ","latitude":42.7282627101,"longitude":23.291210467},{"id":"A2231","name":"УЛ. ХАН КУБРАТ","latitude":42.7264321527,"longitude":23.2899349044},{"id":"A2005","name":"УЛ. КОНСТАНТИН БОДИН","latitude":42.7249062145,"longitude":23.2922606664},{"id":"A1885","name":"УЛ. ВЪЗРОЖДЕНСКА","latitude":42.7234530048,"longitude":23.3020333751},{"id":"A2661","name":"МЕТРОСТАНЦИЯ ХАН КУБРАТ","latitude":42.7223046047,"longitude":23.3069868533},{"id":"A6430","name":"МЕТРОСТАНЦИЯ КН. МАРИЯ ЛУИЗА","latitude":42.7138410759,"longitude":23.3131426036},{"id":"A2079","name":"УЛ. ОПЪЛЧЕНСКА","latitude":42.7125717571,"longitude":23.3162713308},{"id":"A1328","name":"ЦЕНТРАЛНА ГАРА","latitude":42.7106977871,"longitude":23.31851149},{"id":"A0385","name":"БУЛ. ХРИСТО БОТЕВ","latitude":42.705021683,"longitude":23.3186491974},{"id":"A1998","name":"УЛ. КНЯЗ БОРИС I","latitude":42.7047216747,"longitude":23.3228384183},{"id":"A1315","name":"ПЛ. СТОЧНА ГАРА","latitude":42.7057478373,"longitude":23.3344221443},{"id":"A0701","name":"СОФИЯ МЕЛ АД","latitude":42.7069378578,"longitude":23.3395517835},{"id":"A1868","name":"УЛ. ВИДИНИ КУЛИ","latitude":42.7059271061,"longitude":23.3448881026},{"id":"A1864","name":"УЛ. ВАСИЛ ПЕТЛЕШКОВ","latitude":42.7056852238,"longitude":23.3477989015},{"id":"A2040","name":"УЛ. МАКГАХАН","latitude":42.7063229445,"longitude":23.3508683313},{"id":"A1946","name":"УЛ. ЗЛАТИЦА","latitude":42.7072978616,"longitude":23.3550397503},{"id":"A1825","name":"УЛ. АНГЕЛ ВОЙВОДА","latitude":42.7079483006,"longitude":23.357364156},{"id":"A2204","name":"УЛ. ТЕОФИЛ ГАНЕВ","latitude":42.7096866411,"longitude":23.3573586881},{"id":"A2789","name":"Ж.К. ХАДЖИ ДИМИТЪР","latitude":42.7105146242,"longitude":23.36151872}]}},{"line":"A82A","direction0":{"name":"Ул. Орион - Ж.к. Захарна фабрика","stops":[{"id":"A2090","name":"УЛ. ОРИОН","latitude":42.7182093476,"longitude":23.2793826998},{"id":"A1200","name":"УЛ. ВРЪХ МАНЧО","latitude":42.7216947176,"longitude":23.2815931439},{"id":"A0716","name":"СПИИДО ЕООД","latitude":42.7205289596,"longitude":23.285277964},{"id":"A0196","name":"БЛ. 35 Ж.К. ЗАХАРНА ФАБРИКА","latitude":42.7171125837,"longitude":23.2875164269},{"id":"A0756","name":"ИНЖСТРОЙ СОФИЯ АД","latitude":42.7178800909,"longitude":23.2917841867},{"id":"A6728","name":"УЛ. БИЛЯНИНИ ИЗВОРИ","latitude":42.7155143341,"longitude":23.2912223062},{"id":"A6730","name":"ЖК ЗАХАРНА ФАБРИКА","latitude":42.7146085068,"longitude":23.2912864382}]},"direction1":{"name":"Ж.к. Захарна фабрика - Ул. Орион","stops":[{"id":"A6730","name":"ЖК ЗАХАРНА ФАБРИКА","latitude":42.7146085068,"longitude":23.2912864382},{"id":"A6729","name":"УЛ. БИЛЯНИНИ ИЗВОРИ","latitude":42.7156709593,"longitude":23.291403685},{"id":"A0757","name":"ИНЖСТРОЙ СОФИЯ АД","latitude":42.7182252932,"longitude":23.291657125},{"id":"A0195","name":"БЛ. 35 Ж.К. ЗАХАРНА ФАБРИКА","latitude":42.7168972775,"longitude":23.286743411},{"id":"A2399","name":"ЗАПАДЕН ПАРК","latitude":42.7158083658,"longitude":23.2838291347},{"id":"A2090","name":"УЛ. ОРИОН","latitude":42.7182093476,"longitude":23.2793826998}]}},{"line":"A49A","direction0":{"name":"АВТОСТАНЦИЯ БАНКЯ - МАНАСТИР СВ. ПЕТКА ПАРАСКЕВА","stops":[{"id":"A0050","name":"АВТОСТАНЦИЯ БАНКЯ","latitude":42.7084529442,"longitude":23.1525195588},{"id":"A0503","name":"ЦЕНТЪРА БАНКЯ","latitude":42.7071918138,"longitude":23.1477283562},{"id":"A6297","name":"ЦЕНТЪРА БАНКЯ","latitude":42.7075892087,"longitude":23.1462932237},{"id":"A1943","name":"УЛ. СТАРА ПЛАНИНА","latitude":42.7116873009,"longitude":23.1445051595},{"id":"A2202","name":"УЛ. ЦАРИБРОДСКА","latitude":42.7147750223,"longitude":23.1406429129},{"id":"A1643","name":"УЛ. РУЧЕЙ","latitude":42.7182038611,"longitude":23.1339312845},{"id":"A0818","name":"КВ. ВЕРДИКАЛ","latitude":42.7198643723,"longitude":23.1309364871},{"id":"A2496","name":"ПО ЖЕЛАНИЕ (ВЕРДИКАЛ)","latitude":42.722188127,"longitude":23.1289991773},{"id":"A6576","name":"МАНАСТИР СВ. ПЕТКА ПАРАСКЕВА","latitude":42.7261433672,"longitude":23.0780063225}]},"direction1":{"name":"МАНАСТИР СВ. ПЕТКА ПАРАСКЕВА - АВТОСТАНЦИЯ БАНКЯ","stops":[{"id":"A6576","name":"МАНАСТИР СВ. ПЕТКА ПАРАСКЕВА","latitude":42.7261433672,"longitude":23.0780063225},{"id":"A2497","name":"ПО ЖЕЛАНИЕ (ВЕРДИКАЛ)","latitude":42.7218982759,"longitude":23.1292094081},{"id":"A0817","name":"КВ. ВЕРДИКАЛ","latitude":42.7196379281,"longitude":23.1308840225},{"id":"A1642","name":"УЛ. РУЧЕЙ","latitude":42.7180700486,"longitude":23.1340533789},{"id":"A2201","name":"УЛ. ЦАРИБРОДСКА","latitude":42.7145406349,"longitude":23.1410395468},{"id":"A1942","name":"УЛ. СТАРА ПЛАНИНА","latitude":42.7117287651,"longitude":23.144348705},{"id":"A6298","name":"ЦЕНТЪРА БАНКЯ","latitude":42.7074360678,"longitude":23.1463170429},{"id":"A0502","name":"ЦЕНТЪРА БАНКЯ","latitude":42.7071706872,"longitude":23.1482497698},{"id":"A0051","name":"АВТОСТАНЦИЯ БАНКЯ","latitude":42.7082360165,"longitude":23.1522248065}]}},{"line":"A81","direction0":{"name":"КВ. ИВАНЯНЕ - СЕВЕРНА ПРОМИШЛЕНА ЗОНА","stops":[{"id":"A0840","name":"КВ. ИВАНЯНЕ","latitude":42.7062263122,"longitude":23.1813151004},{"id":"A0960","name":"КМЕТСТВО ИВАНЯНЕ","latitude":42.7078208563,"longitude":23.182964179},{"id":"A1380","name":"НАЧАЛО КВ. ИВАНЯНЕ - ПО ЖЕЛАНИЕ","latitude":42.7097371997,"longitude":23.185403146},{"id":"A1378","name":"ПО ЖЕЛАНИЕ","latitude":42.7115242641,"longitude":23.1919338867},{"id":"A1938","name":"УЛ. ДРАВА","latitude":42.7178180703,"longitude":23.2178940081},{"id":"A2347","name":"ЦЕНТЪР КВ.ФИЛИПОВЦИ","latitude":42.7196365198,"longitude":23.2222306179},{"id":"A1852","name":"УЛ. БЪЛГАРСКИ ВОИН","latitude":42.7188086532,"longitude":23.2237527704},{"id":"A1482","name":"УЛ. ДЕТЕЛИНА","latitude":42.7182602,"longitude":23.2276186073},{"id":"A1169","name":"ОКОЛОВРЪСТЕН ПЪТ","latitude":42.7181211097,"longitude":23.2322864266},{"id":"A0908","name":"ПЪТЕН ВЪЗЕЛ ФИЛИПОВЦИ","latitude":42.7183819,"longitude":23.2360201954},{"id":"A0651","name":"Ж.К. ЛЮЛИН-3","latitude":42.7217804755,"longitude":23.2413802239},{"id":"A0197","name":"БЛ. 350 Ж.К. ЛЮЛИН-3","latitude":42.7258687345,"longitude":23.2445954858},{"id":"A0152","name":"БЛ. 264 Ж.К. ЛЮЛИН-2","latitude":42.7280097465,"longitude":23.2462811558},{"id":"A1388","name":"БЛ. 11 Ж.К. ЛЮЛИН-1","latitude":42.7310855861,"longitude":23.2487018416},{"id":"A1751","name":"ПП УСПЕХ","latitude":42.7315991333,"longitude":23.2533577465},{"id":"A1140","name":"НЕСТЛЕ-СОФИЯ","latitude":42.7286896234,"longitude":23.2583271177},{"id":"A1062","name":"МЕТРОСТАНЦИЯ СЛИВНИЦА","latitude":42.7274352935,"longitude":23.2627367321},{"id":"A2065","name":"ХИТ МАРКЕТ ЛЮЛИН","latitude":42.7312299303,"longitude":23.2666549082},{"id":"A2443","name":"БЛ. 119 Ж.К. ОБЕЛЯ-1","latitude":42.7377249757,"longitude":23.2734139641},{"id":"A6240","name":"МЕТРОСТАНЦИЯ ОБЕЛЯ","latitude":42.742295359,"longitude":23.2777682543},{"id":"A1792","name":"УЛ. 2","latitude":42.7429710132,"longitude":23.272973079},{"id":"A1817","name":"УЛ. 9","latitude":42.7429624086,"longitude":23.269981179},{"id":"A0871","name":"КВ. ОБЕЛЯ","latitude":42.742703098,"longitude":23.265678681},{"id":"A6653","name":"ГАРА ОБЕЛЯ","latitude":42.738783748,"longitude":23.2645609086},{"id":"A2562","name":"УЛ. АНДРЕЙ ГЕРМАНОВ","latitude":42.737582297,"longitude":23.2612400638},{"id":"A2563","name":"МЕТРОДЕПО","latitude":42.7364203872,"longitude":23.2587987442},{"id":"A2564","name":"УЛ. ГЕОРГИ КАРАСЛАВОВ","latitude":42.7381321305,"longitude":23.2557314447},{"id":"A2565","name":"СЕВЕРНА ПРОМИШЛЕНА ЗОНА","latitude":42.7383899399,"longitude":23.2583453472}]},"direction1":{"name":"СЕВЕРНА ПРОМИШЛЕНА ЗОНА - КВ. ИВАНЯНЕ","stops":[{"id":"A2565","name":"СЕВЕРНА ПРОМИШЛЕНА ЗОНА","latitude":42.7383899399,"longitude":23.2583453472},{"id":"A2566","name":"УЛ. АНДРЕЙ ГЕРМАНОВ","latitude":42.7378715955,"longitude":23.261648775},{"id":"A6652","name":"ГАРА ОБЕЛЯ","latitude":42.7387230772,"longitude":23.2647970351},{"id":"A0874","name":"КВ. ОБЕЛЯ","latitude":42.7424647201,"longitude":23.2660686232},{"id":"A1815","name":"УЛ. 9","latitude":42.7428908717,"longitude":23.268980232},{"id":"A1793","name":"УЛ. 2","latitude":42.7428892485,"longitude":23.2730101852},{"id":"A6241","name":"МЕТРОСТАНЦИЯ ОБЕЛЯ","latitude":42.742219115,"longitude":23.2776409483},{"id":"A2444","name":"МЕТРОСТАНЦИЯ ОБЕЛЯ","latitude":42.7410850278,"longitude":23.2767884808},{"id":"A2442","name":"БЛ. 119 Ж.К. ОБЕЛЯ-1","latitude":42.7366752619,"longitude":23.2721327903},{"id":"A2064","name":"ХИТ МАРКЕТ ЛЮЛИН","latitude":42.7305652826,"longitude":23.2657836365},{"id":"A1059","name":"МЕТРОСТАНЦИЯ СЛИВНИЦА","latitude":42.7274095326,"longitude":23.2610559667},{"id":"A1141","name":"НЕСТЛЕ-СОФИЯ","latitude":42.7297646221,"longitude":23.2568238252},{"id":"A1752","name":"ПП УСПЕХ","latitude":42.7322299879,"longitude":23.2527078663},{"id":"A2385","name":"МАГАЗИН МОСЮ БРИКОЛАЖ","latitude":42.7322867002,"longitude":23.2494484033},{"id":"A1391","name":"БЛ. 11 Ж.К. ЛЮЛИН-1","latitude":42.730573494,"longitude":23.2481010686},{"id":"A0153","name":"БЛ. 264 Ж.К. ЛЮЛИН-2","latitude":42.7277328008,"longitude":23.2458640648},{"id":"A0200","name":"БЛ. 350 Ж.К. ЛЮЛИН-3","latitude":42.7249294681,"longitude":23.2436570183},{"id":"A0654","name":"Ж.К. ЛЮЛИН-3","latitude":42.7208490035,"longitude":23.2404239222},{"id":"A0207","name":"БЛ. 402 Ж.К. ЛЮЛИН-4","latitude":42.7196727539,"longitude":23.239526112},{"id":"A0907","name":"ПЪТЕН ВЪЗЕЛ ФИЛИПОВЦИ","latitude":42.7179253398,"longitude":23.2340516249},{"id":"A1191","name":"ОКОЛОВРЪСТЕН ПЪТ","latitude":42.7182330818,"longitude":23.2320338574},{"id":"A1477","name":"УЛ. ДЕТЕЛИНА","latitude":42.7183375352,"longitude":23.2279055523},{"id":"A1853","name":"УЛ. БЪЛГАРСКИ ВОИН","latitude":42.7188607893,"longitude":23.223845063},{"id":"A2346","name":"ЦЕНТЪР КВ.ФИЛИПОВЦИ","latitude":42.7197205955,"longitude":23.2211921497},{"id":"A1937","name":"УЛ. ДРАВА","latitude":42.7179268888,"longitude":23.2179048337},{"id":"A1379","name":"ПО ЖЕЛАНИЕ","latitude":42.7115907059,"longitude":23.191990397},{"id":"A1381","name":"НАЧАЛО КВ. ИВАНЯНЕ - ПО ЖЕЛАНИЕ","latitude":42.7098342786,"longitude":23.1853829925},{"id":"A0959","name":"КМЕТСТВО ИВАНЯНЕ","latitude":42.7077862475,"longitude":23.1827819362},{"id":"A0840","name":"КВ. ИВАНЯНЕ","latitude":42.7062263122,"longitude":23.1813151004}]}},{"line":"A118","direction0":{"name":"СЕЛО ЖЕЛЯВА - АВТОСТАНЦИЯ ИЗТОК","stops":[{"id":"A2772","name":"СЕЛО ЖЕЛЯВА","latitude":42.7444816266,"longitude":23.6054778634},{"id":"A1663","name":"НАЧАЛО С. ЖЕЛЯВА","latitude":42.7381754294,"longitude":23.6070914669},{"id":"A1444","name":"РАЗКЛОНА ЗА МАГИСТРАЛА ХЕМУС","latitude":42.73341875,"longitude":23.6051770766},{"id":"A0088","name":"БАЗА ГАЗСТРОЙ - ПО ЖЕЛАНИЕ","latitude":42.7312556709,"longitude":23.5725720226},{"id":"A2185","name":"УЛ. СТАРА ПЛАНИНА","latitude":42.7295816368,"longitude":23.5645775847},{"id":"A2820","name":"ПАМЕТНИКА С. ЯНА","latitude":42.7279115532,"longitude":23.5599621976},{"id":"A2816","name":"УЛ. БОТЕВГРАДСКО ШОСЕ","latitude":42.7278565404,"longitude":23.5573768174},{"id":"A0950","name":"КМЕТСТВО СЕЛО ЯНА","latitude":42.7312870873,"longitude":23.5580107679},{"id":"A2262","name":"УЛ. ЮРИЙ ГАГАРИН","latitude":42.73277806,"longitude":23.5538463836},{"id":"A0479","name":"ГАРА ЯНА","latitude":42.7268904406,"longitude":23.5552560814},{"id":"A1768","name":"ПЪТЕН ВЪЗЕЛ ЯНА - ПО ЖЕЛАНИЕ","latitude":42.7226771034,"longitude":23.5416550431},{"id":"A0780","name":"КАВАЦИТЕ","latitude":42.7200737797,"longitude":23.5347052324},{"id":"A1521","name":"СЕЛО ГОРНИ БОГРОВ","latitude":42.7181515189,"longitude":23.5292854867},{"id":"A1887","name":"115-ТО ОУ","latitude":42.7224838001,"longitude":23.5310348939},{"id":"A1160","name":"МЕТАЛИКА ООД","latitude":42.7384528591,"longitude":23.5162234038},{"id":"A1235","name":"ЦЕНТЪР КВ. БОТУНЕЦ","latitude":42.7395805152,"longitude":23.5113519269},{"id":"A1774","name":"16-ТИ ДКЦ","latitude":42.7386789045,"longitude":23.5065776896},{"id":"A1755","name":"ОБЩИНА КРЕМИКОВЦИ","latitude":42.7362342401,"longitude":23.4865253285},{"id":"A1375","name":"РАЗКЛОНА КВ. КРЕМИКОВЦИ","latitude":42.7371686649,"longitude":23.4693163415},{"id":"A1690","name":"МОСТА НА ЛЕСНОВСКА РЕКА","latitude":42.7330444785,"longitude":23.4654614211},{"id":"A1645","name":"ПРОМИШЛЕНА ЗОНА - ПО ЖЕЛАНИЕ","latitude":42.7188284957,"longitude":23.4427700344},{"id":"A1354","name":"ПО ЖЕЛАНИЕ","latitude":42.7148856529,"longitude":23.4363427741},{"id":"A1440","name":"МАХАЛА ЯПАДЖА","latitude":42.7099224213,"longitude":23.4315255453},{"id":"A1648","name":"МАХАЛА БАТАРЕЯТА","latitude":42.7095949185,"longitude":23.4240996935},{"id":"A1098","name":"МОСТА НА Р. ИСКЪР","latitude":42.7090998745,"longitude":23.418360224},{"id":"A1601","name":"СПИ ПРОФ. П. МУТАФЧИЕВ","latitude":42.7080274101,"longitude":23.4124344569},{"id":"A1435","name":"РАЗКЛОНА ЗА ЛЕТИЩЕТО","latitude":42.7072991378,"longitude":23.4084031329},{"id":"A1580","name":"БУЛ. ВЛАДИМИР ВАЗОВ","latitude":42.7058659842,"longitude":23.4004625843},{"id":"A0056","name":"АВТОСТАНЦИЯ ИЗТОК","latitude":42.7035562591,"longitude":23.386842821}]},"direction1":{"name":"АВТОСТАНЦИЯ ИЗТОК - СЕЛО ЖЕЛЯВА","stops":[{"id":"A0057","name":"АВТОСТАНЦИЯ ИЗТОК","latitude":42.7039145208,"longitude":23.3869925667},{"id":"A1583","name":"БУЛ. ВЛАДИМИР ВАЗОВ","latitude":42.7054706891,"longitude":23.4007273333},{"id":"A2407","name":"ПЪТЯ ЗА ЛЕТИЩЕ ВРАЖДЕБНА","latitude":42.7066769469,"longitude":23.407362493},{"id":"A1434","name":"РАЗКЛОНА ЗА ЛЕТИЩЕТО","latitude":42.7072540965,"longitude":23.4105644361},{"id":"A1600","name":"СПИ ПРОФ. П. МУТАФЧИЕВ","latitude":42.7077777429,"longitude":23.4134686596},{"id":"A1097","name":"МОСТА НА Р. ИСКЪР","latitude":42.7087818303,"longitude":23.4190403756},{"id":"A1649","name":"МАХАЛА БАТАРЕЯТА","latitude":42.7092399774,"longitude":23.4244204492},{"id":"A1441","name":"МАХАЛА ЯПАДЖА","latitude":42.7098558691,"longitude":23.4317511},{"id":"A1355","name":"ПО ЖЕЛАНИЕ","latitude":42.7151560512,"longitude":23.4372122802},{"id":"A1644","name":"ПРОМИШЛЕНА ЗОНА - ПО ЖЕЛАНИЕ","latitude":42.7187128113,"longitude":23.442963873},{"id":"A1687","name":"МОСТА НА ЛЕСНОВСКА РЕКА","latitude":42.7334054372,"longitude":23.4660368593},{"id":"A1376","name":"РАЗКЛОНА КВ. КРЕМИКОВЦИ","latitude":42.7370953629,"longitude":23.4696301254},{"id":"A1756","name":"ОБЩИНА КРЕМИКОВЦИ","latitude":42.7360811507,"longitude":23.4863737573},{"id":"A1773","name":"16-ТИ ДКЦ","latitude":42.7386057666,"longitude":23.5067436693},{"id":"A1236","name":"ЦЕНТЪР КВ. БОТУНЕЦ","latitude":42.7396123555,"longitude":23.5116117956},{"id":"A1159","name":"МЕТАЛИКА ООД","latitude":42.7381536888,"longitude":23.5165756443},{"id":"A1888","name":"115-ТО ОУ","latitude":42.7221967573,"longitude":23.5307877701},{"id":"A1520","name":"СЕЛО ГОРНИ БОГРОВ","latitude":42.7175308857,"longitude":23.5286931357},{"id":"A1522","name":"СЕЛО ГОРНИ БОГРОВ","latitude":42.7162372698,"longitude":23.5297554791},{"id":"A0781","name":"КАВАЦИТЕ","latitude":42.7197547701,"longitude":23.5354465917},{"id":"A1769","name":"ПЪТЕН ВЪЗЕЛ ЯНА - ПО ЖЕЛАНИЕ","latitude":42.7226675741,"longitude":23.5423273689},{"id":"A0478","name":"ГАРА ЯНА","latitude":42.72721763,"longitude":23.5551663891},{"id":"A2263","name":"УЛ. ЮРИЙ ГАГАРИН","latitude":42.7326995885,"longitude":23.554002202},{"id":"A0951","name":"КМЕТСТВО СЕЛО ЯНА","latitude":42.730894856,"longitude":23.5578201936},{"id":"A2817","name":"УЛ. БОТЕВГРАДСКО ШОСЕ","latitude":42.7278109,"longitude":23.5571509531},{"id":"A2819","name":"ПАМЕТНИКА С. ЯНА","latitude":42.7279616836,"longitude":23.560272849},{"id":"A2184","name":"УЛ. СТАРА ПЛАНИНА","latitude":42.7295029739,"longitude":23.5647654016},{"id":"A0087","name":"БАЗА ГАЗСТРОЙ - ПО ЖЕЛАНИЕ","latitude":42.7311663258,"longitude":23.5726857666},{"id":"A1445","name":"РАЗКЛОНА ЗА МАГИСТРАЛА ХЕМУС","latitude":42.7334270005,"longitude":23.6053762491},{"id":"A1664","name":"НАЧАЛО С. ЖЕЛЯВА","latitude":42.738241096,"longitude":23.6071689619},{"id":"A2771","name":"УЛ. ГЕРЕНА","latitude":42.7446011974,"longitude":23.605647384},{"id":"A2814","name":"УЛ. ВАСИЛ ЛЕВСКИ","latitude":42.7462387585,"longitude":23.6061446774},{"id":"A2773","name":"УЛ. 24-ТИ МАЙ","latitude":42.7464426754,"longitude":23.6045349742},{"id":"A2772","name":"СЕЛО ЖЕЛЯВА","latitude":42.7444816266,"longitude":23.6054778634}]}},{"line":"A309","direction0":{"name":"Ж.К. ЛЮЛИН-1,2 - БУЛ. ИЛИЯНЦИ-ПОДЛЕЗА","stops":[{"id":"A0650","name":"Ж.К. ЛЮЛИН-1,2","latitude":42.7295874323,"longitude":23.2470392165},{"id":"A1388","name":"БЛ. 11 Ж.К. ЛЮЛИН-1","latitude":42.7310855861,"longitude":23.2487018416},{"id":"A1751","name":"ПП УСПЕХ","latitude":42.7315991333,"longitude":23.2533577465},{"id":"A1140","name":"НЕСТЛЕ-СОФИЯ","latitude":42.7286896234,"longitude":23.2583271177},{"id":"A1060","name":"МЕТРОСТАНЦИЯ СЛИВНИЦА","latitude":42.7262568912,"longitude":23.2627905665},{"id":"A1783","name":"ТРИЪГЪЛНИКА Ж.К. ЛЮЛИН","latitude":42.7247496475,"longitude":23.265518804},{"id":"A0512","name":"ЧИТАЛИЩЕ СВ.СВ. КИРИЛ И МЕТОДИЙ","latitude":42.7224485985,"longitude":23.2697200253},{"id":"A2167","name":"УЛ. ЛУИ ПАСТЬОР","latitude":42.7203056627,"longitude":23.2737131225},{"id":"A2093","name":"УЛ. ОРИОН","latitude":42.7170883121,"longitude":23.2795121308},{"id":"A1251","name":"ЗАПАДЕН ПАРК","latitude":42.7148836267,"longitude":23.2836770932},{"id":"A2097","name":"УЛ. ОРЯХОВО","latitude":42.7103201917,"longitude":23.2928036504},{"id":"A0328","name":"БУЛ. К. ВЕЛИЧКОВ","latitude":42.7066899284,"longitude":23.299918737},{"id":"A0804","name":"Ж.К. БАНИШОРА","latitude":42.7058326971,"longitude":23.3073524981},{"id":"A2087","name":"УЛ. ОПЪЛЧЕНСКА","latitude":42.7053827349,"longitude":23.3134857162},{"id":"A0385","name":"БУЛ. ХРИСТО БОТЕВ","latitude":42.705021683,"longitude":23.3186491974},{"id":"A1998","name":"УЛ. КНЯЗ БОРИС I","latitude":42.7047216747,"longitude":23.3228384183},{"id":"A1321","name":"ПЛ. СТОЧНА ГАРА","latitude":42.7044227229,"longitude":23.3305530643},{"id":"A1312","name":"ПЛ. СТОЧНА ГАРА","latitude":42.7059380054,"longitude":23.3326764347},{"id":"A2310","name":"ХЛАДИЛЕН ЗАВОД","latitude":42.7087356402,"longitude":23.3345840014},{"id":"A1945","name":"ЦЕНТРАЛЕН ГРОБИЩЕН ПАРК","latitude":42.7114270329,"longitude":23.3328570173},{"id":"A0065","name":"БУЛ. ИСТОРИЯ СЛАВЯНОБЪЛГАРСКА","latitude":42.7156983896,"longitude":23.3239947407},{"id":"A1747","name":"ТЕЦ СОФИЯ","latitude":42.7171276654,"longitude":23.3202560113},{"id":"A0718","name":"КОТЛОСТРОЕНЕ АД","latitude":42.7186069434,"longitude":23.3164071938},{"id":"A1385","name":"БУЛ. ИЛИЯНЦИ-ПОДЛЕЗА","latitude":42.7191375756,"longitude":23.3114414126}]},"direction1":{"name":"БУЛ. ИЛИЯНЦИ-ПОДЛЕЗА - Ж.К. ЛЮЛИН-1,2","stops":[{"id":"A1385","name":"БУЛ. ИЛИЯНЦИ-ПОДЛЕЗА","latitude":42.7191375756,"longitude":23.3114414126},{"id":"A0717","name":"КОТЛОСТРОЕНЕ АД","latitude":42.7185781048,"longitude":23.3157144083},{"id":"A1748","name":"ТЕЦ СОФИЯ","latitude":42.7167063634,"longitude":23.3207202313},{"id":"A0066","name":"БУЛ. ИСТОРИЯ СЛАВЯНОБЪЛГАРСКА","latitude":42.7152138236,"longitude":23.3246208971},{"id":"A1944","name":"ЦЕНТРАЛЕН ГРОБИЩЕН ПАРК","latitude":42.7111387854,"longitude":23.3322766219},{"id":"A2312","name":"ХЛАДИЛЕН ЗАВОД","latitude":42.708497549,"longitude":23.3322719241},{"id":"A1318","name":"ПЛ. СТОЧНА ГАРА","latitude":42.7058365089,"longitude":23.3324835557},{"id":"A1311","name":"ПЛ. СТОЧНА ГАРА","latitude":42.7050587196,"longitude":23.3309237046},{"id":"A1999","name":"УЛ. КНЯЗ БОРИС I","latitude":42.7053911446,"longitude":23.3221639726},{"id":"A0382","name":"БУЛ. ХРИСТО БОТЕВ","latitude":42.7057613701,"longitude":23.3168798065},{"id":"A2082","name":"УЛ. ОПЪЛЧЕНСКА","latitude":42.7061702441,"longitude":23.3110471944},{"id":"A0803","name":"Ж.К. БАНИШОРА","latitude":42.7063988067,"longitude":23.3073394448},{"id":"A0325","name":"БУЛ. К. ВЕЛИЧКОВ","latitude":42.7069918688,"longitude":23.2999782167},{"id":"A2096","name":"УЛ. ОРЯХОВО","latitude":42.710970719,"longitude":23.2919917926},{"id":"A1253","name":"ЗАПАДЕН ПАРК","latitude":42.7149864406,"longitude":23.2840337},{"id":"A2091","name":"УЛ. ОРИОН","latitude":42.7181617602,"longitude":23.2779604813},{"id":"A2166","name":"УЛ. ЛУИ ПАСТЬОР","latitude":42.7208247827,"longitude":23.2730421609},{"id":"A0511","name":"ЧИТАЛИЩЕ СВ.СВ. КИРИЛ И МЕТОДИЙ","latitude":42.722211406,"longitude":23.2704898378},{"id":"A1781","name":"ТРИЪГЪЛНИКА Ж.К. ЛЮЛИН","latitude":42.7253411624,"longitude":23.2647493481},{"id":"A1059","name":"МЕТРОСТАНЦИЯ СЛИВНИЦА","latitude":42.7274095326,"longitude":23.2610559667},{"id":"A1141","name":"НЕСТЛЕ-СОФИЯ","latitude":42.7297646221,"longitude":23.2568238252},{"id":"A1752","name":"ПП УСПЕХ","latitude":42.7322299879,"longitude":23.2527078663},{"id":"A2385","name":"МАГАЗИН МОСЮ БРИКОЛАЖ","latitude":42.7322867002,"longitude":23.2494484033},{"id":"A1391","name":"БЛ. 11 Ж.К. ЛЮЛИН-1","latitude":42.730573494,"longitude":23.2481010686},{"id":"A0649","name":"Ж.К. ЛЮЛИН-1,2","latitude":42.7299276445,"longitude":23.2471501075}]}},{"line":"A11TM","direction0":{"name":"КВ. ПАВЛОВО - Ж.К. ЗАПАДЕН ПАРК","stops":[{"id":"A0890","name":"КВ. ПАВЛОВО","latitude":42.667160384,"longitude":23.2662559008},{"id":"A0882","name":"КВ. ОВЧА КУПЕЛ","latitude":42.6722404617,"longitude":23.2720602073},{"id":"A0098","name":"НЦ ПО РЕХАБИЛИТАЦИЯ","latitude":42.6776352147,"longitude":23.2684074644},{"id":"A2057","name":"УЛ. НАРОДНО ХОРО","latitude":42.6809094944,"longitude":23.2695158205},{"id":"A6037","name":"МЕТРОСТАНЦИЯ ОВЧА КУПЕЛ","latitude":42.6822594975,"longitude":23.2709790018},{"id":"A0566","name":"БАЛКАНКАР АД","latitude":42.6861436443,"longitude":23.2748112237},{"id":"A0631","name":"Ж.К. КРАСНА ПОЛЯНА","latitude":42.6911411051,"longitude":23.2788592896},{"id":"A1931","name":"УЛ. ДОБРОТИЧ","latitude":42.6934874706,"longitude":23.2822328799},{"id":"A2145","name":"УЛ. ПРОФ. ВАЙГАНД","latitude":42.6964751599,"longitude":23.2804847686},{"id":"A2162","name":"Ж.К. КРАСНА ПОЛЯНА","latitude":42.6973333925,"longitude":23.2772074861},{"id":"A0620","name":"Ж.К. ЗАПАДЕН ПАРК","latitude":42.7015947945,"longitude":23.2765450203}]},"direction1":{"name":"Ж.К. ЗАПАДЕН ПАРК - КВ. ПАВЛОВО","stops":[{"id":"A0620","name":"Ж.К. ЗАПАДЕН ПАРК","latitude":42.7015947945,"longitude":23.2765450203},{"id":"A2163","name":"Ж.К. КРАСНА ПОЛЯНА","latitude":42.6971211458,"longitude":23.2772413018},{"id":"A2146","name":"УЛ. ПРОФ. ВАЙГАНД","latitude":42.6961521316,"longitude":23.280918383},{"id":"A1934","name":"УЛ. ДОБРОТИЧ","latitude":42.6926983018,"longitude":23.2808299762},{"id":"A0635","name":"Ж.К. КРАСНА ПОЛЯНА","latitude":42.6907343137,"longitude":23.2780600006},{"id":"A0565","name":"БАЛКАНКАР АД","latitude":42.6866486871,"longitude":23.2749806344},{"id":"A6038","name":"МЕТРОСТАНЦИЯ ОВЧА КУПЕЛ","latitude":42.6821610142,"longitude":23.2706289031},{"id":"A2054","name":"УЛ. НАРОДНО ХОРО","latitude":42.6799302288,"longitude":23.2690065589},{"id":"A0094","name":"НЦ ПО РЕХАБИЛИТАЦИЯ","latitude":42.6762926641,"longitude":23.2683118143},{"id":"A0881","name":"КВ. ОВЧА КУПЕЛ","latitude":42.6712128923,"longitude":23.2730689498},{"id":"A0875","name":"КВ. ОВЧА КУПЕЛ","latitude":42.6715774605,"longitude":23.2720469131},{"id":"A0893","name":"КВ. ПАВЛОВО","latitude":42.6675278623,"longitude":23.2660937782}]}},{"line":"A20TM","direction0":{"name":"МЕТРОСТАНЦИЯ ОПЪЛЧЕНСКА - ПЛ. ВАСИЛ ЛЕВСКИ","stops":[{"id":"A1058","name":"МЕТРОСТАНЦИЯ ОПЪЛЧЕНСКА","latitude":42.6996617939,"longitude":23.3126120032},{"id":"A0384","name":"БУЛ. ХРИСТО БОТЕВ","latitude":42.7002660588,"longitude":23.3156730917},{"id":"A0378","name":"ЖЕНСКИ ПАЗАР","latitude":42.7007158597,"longitude":23.3182618756},{"id":"A6753","name":"ЦЕНТРАЛНИ ХАЛИ","latitude":42.7002453137,"longitude":23.3220266662},{"id":"A6495","name":"ПЛОЩАД НЕЗАВИСИМОСТ","latitude":42.697672983,"longitude":23.3254487683},{"id":"A1115","name":"НАЦИОНАЛНА ОПЕРА","latitude":42.6982900037,"longitude":23.3309585947},{"id":"A0298","name":"БУЛ. ВАСИЛ ЛЕВСКИ","latitude":42.6987667618,"longitude":23.3357359381},{"id":"A6102","name":"ПЛ. ВАСИЛ ЛЕВСКИ","latitude":42.6967025319,"longitude":23.3358150659}]},"direction1":{"name":"ПЛ. ВАСИЛ ЛЕВСКИ - МЕТРОСТАНЦИЯ ОПЪЛЧЕНСКА","stops":[{"id":"A6102","name":"ПЛ. ВАСИЛ ЛЕВСКИ","latitude":42.6967025319,"longitude":23.3358150659},{"id":"A1116","name":"НАЦИОНАЛНА ОПЕРА","latitude":42.6983038753,"longitude":23.3306266085},{"id":"A1074","name":"МЛАДЕЖКИ ТЕАТЪР","latitude":42.6988158907,"longitude":23.3267844255},{"id":"A2335","name":"ЦЕНТРАЛНИ ХАЛИ","latitude":42.6999140744,"longitude":23.3237445376},{"id":"A0379","name":"ЖЕНСКИ ПАЗАР","latitude":42.700382943,"longitude":23.3177896181},{"id":"A0383","name":"БУЛ. ХРИСТО БОТЕВ","latitude":42.7001606959,"longitude":23.3164131312},{"id":"A1058","name":"МЕТРОСТАНЦИЯ ОПЪЛЧЕНСКА","latitude":42.6996617939,"longitude":23.3126120032}]}},{"line":"A103","direction0":{"name":"АВТОСТАНЦИЯ ОВЧА КУПЕЛ - ВЗ. ЛЮЛИН","stops":[{"id":"A2705","name":"АВТОСТАНЦИЯ ОВЧА КУПЕЛ","latitude":42.6728054769,"longitude":23.2720705348},{"id":"A0095","name":"НЦ ПО РЕХАБИЛИТАЦИЯ","latitude":42.6769425665,"longitude":23.2674137615},{"id":"A0900","name":"УЛ. ЛЮБЛЯНА","latitude":42.6748008805,"longitude":23.2642660425},{"id":"A0041","name":"66-ТО СОУ","latitude":42.6724232954,"longitude":23.2617527872},{"id":"A0773","name":"УЛ. КАЛОЯНОВО","latitude":42.6701592424,"longitude":23.2571413325},{"id":"A0345","name":"БУЛ. НИКОЛА ПЕТКОВ","latitude":42.6687247104,"longitude":23.2541140611},{"id":"A1922","name":"УЛ. ДАМЯНИЦА","latitude":42.6671092324,"longitude":23.2505916976},{"id":"A1827","name":"УЛ. ЛАЗАРОПОЛЕ","latitude":42.6632450872,"longitude":23.2456332584},{"id":"A1310","name":"ПЛ. СРЕД СЕЛО","latitude":42.6610823953,"longitude":23.2434440297},{"id":"A2120","name":"УЛ. ПОЛК.СТ.БАЧИЙСКИ","latitude":42.6647142213,"longitude":23.2438014619},{"id":"A2192","name":"УЛ. СТЕФАН ПЕШЕВ","latitude":42.6664148723,"longitude":23.2440477889},{"id":"A6621","name":"УЛ. БУРЯ","latitude":42.6694641395,"longitude":23.2447290597},{"id":"A6622","name":"УЛ. КНЯЖЕВСКА","latitude":42.6701702022,"longitude":23.2424439813},{"id":"A0480","name":"ГАРА ГОРНА БАНЯ","latitude":42.6736015437,"longitude":23.2403401968},{"id":"A2224","name":"УЛ. УРАЛ","latitude":42.6773488297,"longitude":23.2409258141},{"id":"A2846","name":"МЕТРОСТАНЦИЯ ГОРНА БАНЯ","latitude":42.6800549736,"longitude":23.2403848563},{"id":"A2323","name":"ХОТЕЛ ГОРНА БАНЯ","latitude":42.6766547918,"longitude":23.2385822754},{"id":"A0483","name":"ГАРА ГОРНА БАНЯ","latitude":42.674312111,"longitude":23.2402003981},{"id":"A2707","name":"УЛ. ОБЗОР","latitude":42.6759117756,"longitude":23.2319868392},{"id":"A2709","name":"КВ. ГОРНА БАНЯ","latitude":42.6759774156,"longitude":23.2281175693},{"id":"A2710","name":"КАНТОНА","latitude":42.6707478663,"longitude":23.220305411},{"id":"A2712","name":"ХОТЕЛ-РЕСТОРАНТ","latitude":42.6670050963,"longitude":23.218379939},{"id":"A2714","name":"КОШАРИТЕ","latitude":42.6609655983,"longitude":23.2099831733},{"id":"A2716","name":"ПО ЖЕЛАНИЕ","latitude":42.6573775419,"longitude":23.2035363194},{"id":"A2718","name":"ВИЛИТЕ","latitude":42.6533879012,"longitude":23.1979308346},{"id":"A2720","name":"ВЗ. ЛЮЛИН","latitude":42.6523651949,"longitude":23.1921602323}]},"direction1":{"name":"ВЗ. ЛЮЛИН - АВТОСТАНЦИЯ ОВЧА КУПЕЛ","stops":[{"id":"A2720","name":"ВЗ. ЛЮЛИН","latitude":42.6523651949,"longitude":23.1921602323},{"id":"A2719","name":"ВИЛИТЕ","latitude":42.6533393765,"longitude":23.1978368788},{"id":"A2717","name":"ПО ЖЕЛАНИЕ","latitude":42.6573050868,"longitude":23.2039328485},{"id":"A2715","name":"КОШАРИТЕ","latitude":42.6607861565,"longitude":23.2097549752},{"id":"A2713","name":"ХОТЕЛ-РЕСТОРАНТ","latitude":42.6673385972,"longitude":23.2188202359},{"id":"A2711","name":"КАНТОНА","latitude":42.6709808101,"longitude":23.2204756106},{"id":"A0829","name":"КВ. ГОРНА БАНЯ","latitude":42.6757162882,"longitude":23.2286050548},{"id":"A2708","name":"УЛ. ОБЗОР","latitude":42.6758111151,"longitude":23.2321256292},{"id":"A2224","name":"УЛ. УРАЛ","latitude":42.6773488297,"longitude":23.2409258141},{"id":"A2846","name":"МЕТРОСТАНЦИЯ ГОРНА БАНЯ","latitude":42.6800549736,"longitude":23.2403848563},{"id":"A2323","name":"ХОТЕЛ ГОРНА БАНЯ","latitude":42.6766547918,"longitude":23.2385822754},{"id":"A0483","name":"ГАРА ГОРНА БАНЯ","latitude":42.674312111,"longitude":23.2402003981},{"id":"A2706","name":"ГАРА ГОРНА БАНЯ","latitude":42.6737301305,"longitude":23.2401780764},{"id":"A6623","name":"УЛ. КНЯЖЕВСКА","latitude":42.67010617,"longitude":23.2422059197},{"id":"A1849","name":"УЛ. БУРЯ","latitude":42.6685849199,"longitude":23.2444517939},{"id":"A2193","name":"УЛ. СТЕФАН ПЕШЕВ","latitude":42.6658246836,"longitude":23.2439068179},{"id":"A2119","name":"УЛ. ПОЛК.СТ.БАЧИЙСКИ","latitude":42.6643922989,"longitude":23.2436987235},{"id":"A1309","name":"ПЛ. СРЕД СЕЛО","latitude":42.6612665977,"longitude":23.24374745},{"id":"A1828","name":"УЛ. ЛАЗАРОПОЛЕ","latitude":42.6636525799,"longitude":23.2464177149},{"id":"A1923","name":"УЛ. ДАМЯНИЦА","latitude":42.6664978976,"longitude":23.2495525999},{"id":"A0346","name":"БУЛ. НИКОЛА ПЕТКОВ","latitude":42.6693099503,"longitude":23.2556576174},{"id":"A0776","name":"УЛ. КАЛОЯНОВО","latitude":42.6703513531,"longitude":23.257868244},{"id":"A0042","name":"66-ТО СОУ","latitude":42.6726462981,"longitude":23.2621997099},{"id":"A2541","name":"УЛ. ЛЮБЛЯНА","latitude":42.6753408542,"longitude":23.2650553813},{"id":"A0094","name":"НЦ ПО РЕХАБИЛИТАЦИЯ","latitude":42.6762926641,"longitude":23.2683118143},{"id":"A2705","name":"АВТОСТАНЦИЯ ОВЧА КУПЕЛ","latitude":42.6728054769,"longitude":23.2720705348}]}},{"line":"TB73","direction0":{"name":"Ж.К. МЛАДОСТ-1 - Ж.К. ОВЧА КУПЕЛ-2","stops":[{"id":"TB6616","name":"Ж.К. МЛАДОСТ-1","latitude":42.6506272048,"longitude":23.3676885385},{"id":"TB2678","name":"БЛ. 245 Ж.К. МЛАДОСТ 2","latitude":42.6464181025,"longitude":23.3680556762},{"id":"TB0664","name":"Ж.К. МЛАДОСТ-2","latitude":42.6455923437,"longitude":23.3674325129},{"id":"TB2677","name":"БЛ. 245 Ж.К. МЛАДОСТ 2","latitude":42.6470418613,"longitude":23.368046055},{"id":"TB0661","name":"Ж.К. МЛАДОСТ-1","latitude":42.6511896473,"longitude":23.3679098591},{"id":"TB1401","name":"ПОСОЛСТВАТА","latitude":42.6530788772,"longitude":23.3678399306},{"id":"TB0022","name":"ОНКОЛОГИЧЕН ДИСПАНСЕР","latitude":42.6548841728,"longitude":23.3701774265},{"id":"TB0447","name":"УЛ. ЙЕРУСАЛИМ","latitude":42.6544176439,"longitude":23.3727760139},{"id":"TB0209","name":"БЛ. 41 Ж.К. МЛАДОСТ-1","latitude":42.6565861129,"longitude":23.3762590811},{"id":"TB1198","name":"УМБАЛ СВ. АННА-УХО","latitude":42.660194585,"longitude":23.3740887649},{"id":"TB1192","name":"УМБАЛ СВ. АННА","latitude":42.6621022534,"longitude":23.375573632},{"id":"TB0576","name":"СОФИЯ ТЕХ ПАРК","latitude":42.6659239425,"longitude":23.3716332451},{"id":"TB1258","name":"ПЛОЩАД  НА АВИАЦИЯТА","latitude":42.6696602435,"longitude":23.3685151403},{"id":"TB2327","name":"ХОТЕЛ ПЛИСКА","latitude":42.6755579727,"longitude":23.3588933149},{"id":"TB1604","name":"НПМГ АКАД. ЛЮБОМИР ЧАКАЛОВ","latitude":42.668603978,"longitude":23.3289524665},{"id":"TB2777","name":"МБАЛ ТОКУДА БОЛНИЦА","latitude":42.6671614843,"longitude":23.3267210279},{"id":"TB2778","name":"Аджибадем сити клиник","latitude":42.6646556531,"longitude":23.32594014},{"id":"TB0909","name":"МЕТРОСТАНЦИЯ ВИТОША","latitude":42.6601957044,"longitude":23.3180270375},{"id":"TB2755","name":"МЕТРОСТАНЦИЯ ВИТОША","latitude":42.6591320686,"longitude":23.3158380942},{"id":"TB1801","name":"УЛ. ИВАН АНДОНОВ","latitude":42.6573293012,"longitude":23.3101721834},{"id":"TB2033","name":"УЛ. ЛУИ АЙЕР","latitude":42.66282478,"longitude":23.3034457959},{"id":"TB2008","name":"УЛ. КОСТЕНСКИ ВОДОПАД","latitude":42.6661609341,"longitude":23.2999020828},{"id":"TB1224","name":"29-ТИ ДКЦ","latitude":42.6638699894,"longitude":23.2968834385},{"id":"TB6278","name":"УЛ. КОСТЕНСКИ ВОДОПАД","latitude":42.6618384788,"longitude":23.2949004707},{"id":"TB6279","name":"УЛ. Г. ИЗМИРЛИЕВ","latitude":42.663540383,"longitude":23.2915276115},{"id":"TB6564","name":"БУЛ. БЪЛГАРИЯ","latitude":42.6657536474,"longitude":23.2867313146},{"id":"TB2730","name":"УЛ. РОДОПСКИ ИЗВОР","latitude":42.6673668201,"longitude":23.2820980562},{"id":"TB6088","name":"УЛ. Т. КАБЛЕШКОВ","latitude":42.669768531,"longitude":23.2763261479},{"id":"TB0882","name":"КВ. ОВЧА КУПЕЛ","latitude":42.6722404617,"longitude":23.2720602073},{"id":"TB0095","name":"НЦ ПО РЕХАБИЛИТАЦИЯ","latitude":42.6769425665,"longitude":23.2674137615},{"id":"TB2606","name":"УЛ. ЛЮБЛЯНА","latitude":42.6749599805,"longitude":23.2631269503},{"id":"TB2607","name":"УЛ. НАРОДЕН ГЕРОЙ","latitude":42.6743449357,"longitude":23.2587520016},{"id":"TB1845","name":"УЛ. БОРЯНА","latitude":42.6738757104,"longitude":23.2523939903},{"id":"TB0069","name":"НБУ","latitude":42.677690476,"longitude":23.253838573},{"id":"TB1566","name":"ПГСС","latitude":42.6801165046,"longitude":23.2547653231},{"id":"TB0813","name":"МЕТРОСТАНЦИЯ МИЗИЯ","latitude":42.6830843903,"longitude":23.255835553},{"id":"TB0227","name":"БЛ. 505 Ж.К. ОВЧА КУПЕЛ-1","latitude":42.6867548021,"longitude":23.2554565196},{"id":"TB0231","name":"БЛ. 527 Ж.К. ОВЧА КУПЕЛ-1","latitude":42.6894086503,"longitude":23.2547809717},{"id":"TB2141","name":"Ул. Промишлена","latitude":42.6897129822,"longitude":23.2487052228},{"id":"TB0192","name":"БЛ. 32 Ж.К. ОВЧА КУПЕЛ-2","latitude":42.6892756425,"longitude":23.2453409978},{"id":"TB0175","name":"БЛ. 25 Ж.К. ОВЧА КУПЕЛ-2","latitude":42.6886575891,"longitude":23.2416094778},{"id":"TB1708","name":"ПАЗАРА ОВЧА КУПЕЛ","latitude":42.6838445334,"longitude":23.2417541843},{"id":"TB0682","name":"Ж.К. ОВЧА КУПЕЛ-2","latitude":42.6826621079,"longitude":23.2436037379}]},"direction1":{"name":"Ж.К. ОВЧА КУПЕЛ-2 - Ж.к. Младост-1","stops":[{"id":"TB0684","name":"Ж.К. ОВЧА КУПЕЛ-2","latitude":42.6830207295,"longitude":23.2436713983},{"id":"TB1706","name":"ПАЗАРА ОВЧА КУПЕЛ","latitude":42.6842727553,"longitude":23.2412099994},{"id":"TB0174","name":"БЛ. 25 Ж.К. ОВЧА КУПЕЛ-2","latitude":42.6888374858,"longitude":23.2428592138},{"id":"TB0191","name":"БЛ. 32 Ж.К. ОВЧА КУПЕЛ-2","latitude":42.6893126603,"longitude":23.2466482117},{"id":"TB2140","name":"УЛ. ПРОМИШЛЕНА","latitude":42.6898591457,"longitude":23.2507923344},{"id":"TB0232","name":"БЛ. 527 Ж.К. ОВЧА КУПЕЛ-1","latitude":42.6890351021,"longitude":23.2546990098},{"id":"TB0228","name":"БЛ. 505 Ж.К. ОВЧА КУПЕЛ-1","latitude":42.6856746882,"longitude":23.2555617543},{"id":"TB0812","name":"МЕТРОСТАНЦИЯ МИЗИЯ","latitude":42.6822761778,"longitude":23.2553418353},{"id":"TB1567","name":"ПГСС","latitude":42.6795774612,"longitude":23.2543824199},{"id":"TB0067","name":"НБУ","latitude":42.676544418,"longitude":23.2532277542},{"id":"TB1844","name":"УЛ. БОРЯНА","latitude":42.6734212009,"longitude":23.2530497634},{"id":"TB2053","name":"УЛ. НАРОДЕН ГЕРОЙ","latitude":42.6744526285,"longitude":23.2604209194},{"id":"TB2037","name":"УЛ. ЛЮБЛЯНА","latitude":42.6749353797,"longitude":23.2638976901},{"id":"TB0094","name":"НЦ ПО РЕХАБИЛИТАЦИЯ","latitude":42.6762926641,"longitude":23.2683118143},{"id":"TB0881","name":"КВ. ОВЧА КУПЕЛ","latitude":42.6712128923,"longitude":23.2730689498},{"id":"TB2210","name":"УЛ. Т. КАБЛЕШКОВ","latitude":42.6692480735,"longitude":23.2773801692},{"id":"TB2731","name":"УЛ. РОДОПСКИ ИЗВОР","latitude":42.6667795631,"longitude":23.2834471683},{"id":"TB6275","name":"БУЛ. БЪЛГАРИЯ","latitude":42.6658378535,"longitude":23.2861484183},{"id":"TB6276","name":"УЛ. Г. ИЗМИРЛИЕВ","latitude":42.6628957999,"longitude":23.2921775151},{"id":"TB0490","name":"УЛ. Т. КАБЛЕШКОВ","latitude":42.6621902986,"longitude":23.2958133685},{"id":"TB1226","name":"29-ТИ ДКЦ","latitude":42.6643063263,"longitude":23.2976979735},{"id":"TB2010","name":"УЛ. КОСТЕНСКИ ВОДОПАД","latitude":42.6663080583,"longitude":23.3003317067},{"id":"TB2036","name":"УЛ. ЛУИ АЙЕР","latitude":42.6641069606,"longitude":23.3026248689},{"id":"TB1800","name":"УЛ. ИВАН АНДОНОВ","latitude":42.6571557346,"longitude":23.3109611088},{"id":"TB2763","name":"БУЛ. ЧЕРНИ ВРЪХ","latitude":42.6584101865,"longitude":23.314694193},{"id":"TB0912","name":"МЕТРОСТАНЦИЯ ВИТОША","latitude":42.6598086312,"longitude":23.3176814584},{"id":"TB2779","name":"Аджибадем сити клиник","latitude":42.6650709153,"longitude":23.3265277199},{"id":"TB0206","name":"МБАЛ ТОКУДА БОЛНИЦА","latitude":42.667773361,"longitude":23.327131945},{"id":"TB1605","name":"НПМГ АКАД. ЛЮБОМИР ЧАКАЛОВ","latitude":42.6686705849,"longitude":23.3301214393},{"id":"TB2869","name":"Ловен парк","latitude":42.6696014439,"longitude":23.332614002},{"id":"TB2326","name":"ХОТЕЛ ПЛИСКА","latitude":42.6750221405,"longitude":23.3591537954},{"id":"TB1194","name":"УМБАЛ СВ. АННА","latitude":42.6626478134,"longitude":23.376438429},{"id":"TB0238","name":"БЛ. 6 Ж.К. МЛАДОСТ-1","latitude":42.6581717251,"longitude":23.3777562937},{"id":"TB0210","name":"БЛ. 41 Ж.К. МЛАДОСТ-1","latitude":42.6559122529,"longitude":23.3751730982},{"id":"TB2471","name":"УЛ. ЙЕРУСАЛИМ","latitude":42.6542734144,"longitude":23.3717070243},{"id":"TB0023","name":"ОНКОЛОГИЧЕН ДИСПАНСЕР","latitude":42.6545950456,"longitude":23.3690785873},{"id":"TB1400","name":"ПОСОЛСТВАТА","latitude":42.6527261713,"longitude":23.3677161921},{"id":"TB0662","name":"Ж.К. МЛАДОСТ-1","latitude":42.6511076362,"longitude":23.3674871807}]}},{"line":"A9","direction0":{"name":"АВТОБАЗА ИСКЪР - УЛ. ГЕН. ГУРКО","stops":[{"id":"A0047","name":"АВТОБАЗА ИСКЪР","latitude":42.6780371617,"longitude":23.38979794},{"id":"A0121","name":"БКС СРЕДЕЦ","latitude":42.6795461603,"longitude":23.3873734883},{"id":"A1587","name":"СЛАТИНА БУЛГАРПЛОД","latitude":42.678921325,"longitude":23.3832260952},{"id":"A2013","name":"ВТУ Т. КАБЛЕШКОВ","latitude":42.6793871094,"longitude":23.3787170626},{"id":"A0687","name":"Ж.К. СЛАТИНА","latitude":42.6798940342,"longitude":23.3714412891},{"id":"A6710","name":"АВТОСТАНЦИЯ ГЕО МИЛЕВ","latitude":42.6779592087,"longitude":23.3700308444},{"id":"A0719","name":"НУ ЗА ТАНЦОВО ИЗКУСТВО","latitude":42.6783601686,"longitude":23.3658278662},{"id":"A2059","name":"УЛ. Н. КОПЕРНИК","latitude":42.6792534777,"longitude":23.3615316811},{"id":"A1824","name":"УЛ. АЛЕКСАНДЪР ЖЕНДОВ","latitude":42.6806623703,"longitude":23.3571589637},{"id":"A2234","name":"УЛ. ХЕМУС","latitude":42.683528555,"longitude":23.3541423898},{"id":"A1489","name":"РУМЪНСКО ПОСОЛСТВО","latitude":42.6860768066,"longitude":23.3512725707},{"id":"A0092","name":"31-ВО СУЧЕМ","latitude":42.6873725011,"longitude":23.3524575994},{"id":"A1972","name":"УЛ. КАЛИМАНЦИ","latitude":42.6908391745,"longitude":23.3545018532},{"id":"A2074","name":"УЛ. ОБОРИЩЕ","latitude":42.6931902295,"longitude":23.354621008},{"id":"A2259","name":"УЛ. ЧЕРКОВНА","latitude":42.6936160709,"longitude":23.3510686078},{"id":"A2271","name":"129-ТО ОУ","latitude":42.6939872667,"longitude":23.3479979745},{"id":"A0442","name":"ВОЕННА АКАДЕМИЯ","latitude":42.6924306417,"longitude":23.3438540971},{"id":"A1289","name":"ПЛ. ОРЛОВ МОСТ","latitude":42.6903054022,"longitude":23.3363953509},{"id":"A1903","name":"УЛ. ГЕН. ГУРКО","latitude":42.6905962556,"longitude":23.3320875471}]},"direction1":{"name":"УЛ. ГЕН. ГУРКО - АВТОБАЗА ИСКЪР","stops":[{"id":"A1903","name":"УЛ. ГЕН. ГУРКО","latitude":42.6905962556,"longitude":23.3320875471},{"id":"A1697","name":"СУ СВ.КЛИМЕНТ ОХРИДСКИ","latitude":42.6943033409,"longitude":23.3354109397},{"id":"A0441","name":"ВОЕННА АКАДЕМИЯ","latitude":42.6926397255,"longitude":23.3436502788},{"id":"A2270","name":"129-ТО ОУ","latitude":42.6939748904,"longitude":23.3475346707},{"id":"A2258","name":"УЛ. ЧЕРКОВНА","latitude":42.693416969,"longitude":23.3521094637},{"id":"A2071","name":"УЛ. ОБОРИЩЕ","latitude":42.69265917,"longitude":23.3549651179},{"id":"A1975","name":"УЛ. КАЛИМАНЦИ","latitude":42.689982963,"longitude":23.3535874644},{"id":"A6591","name":"РУМЪНСКО ПОСОЛСТВО","latitude":42.6850648094,"longitude":23.3512484757},{"id":"A2235","name":"УЛ. ХЕМУС","latitude":42.6835707941,"longitude":23.3539577946},{"id":"A1823","name":"УЛ. АЛЕКСАНДЪР ЖЕНДОВ","latitude":42.6809954912,"longitude":23.3567782636},{"id":"A2060","name":"УЛ. Н. КОПЕРНИК","latitude":42.6793030082,"longitude":23.3607801911},{"id":"A0720","name":"НУ ЗА ТАНЦОВО ИЗКУСТВО","latitude":42.6785250236,"longitude":23.3653264178},{"id":"A6709","name":"АВТОСТАНЦИЯ ГЕО МИЛЕВ","latitude":42.678313843,"longitude":23.3705134901},{"id":"A0690","name":"Ж.К. СЛАТИНА","latitude":42.6803141748,"longitude":23.3729854684},{"id":"A2014","name":"ВТУ Т. КАБЛЕШКОВ","latitude":42.6789981935,"longitude":23.3784691461},{"id":"A1586","name":"СЛАТИНА БУЛГАРПЛОД","latitude":42.6788731149,"longitude":23.3834011697},{"id":"A0120","name":"БКС СРЕДЕЦ","latitude":42.6793203237,"longitude":23.3874703049},{"id":"A2548","name":"АВТОБАЗА ИСКЪР","latitude":42.677817047,"longitude":23.3895601551}]}},{"line":"AX9","direction0":{"name":"МЕТРОСТАНЦИЯ АКАД. А. Т.- БАЛАН - Ж.К. ЛОЗЕНЕЦ","stops":[{"id":"A2752","name":"МЕТРОСТАНЦИЯ АКАД. А. Т.- БАЛАН","latitude":42.6403828757,"longitude":23.3727976342},{"id":"A2754","name":"БЛ. 458 Ж.К. МЛАДОСТ 4","latitude":42.6345375907,"longitude":23.3728917133},{"id":"A2490","name":"МЕТРОСТАНЦИЯ БИЗНЕС ПАРК","latitude":42.6290327538,"longitude":23.37281432},{"id":"A2648","name":"КИНО АРЕНА ІІ","latitude":42.6241114389,"longitude":23.3747896918},{"id":"A2625","name":"БИЗНЕС ПАРК СОФИЯ","latitude":42.6242842012,"longitude":23.3710756894},{"id":"A1374","name":"В.З. МАЛИНОВА ДОЛИНА","latitude":42.6241279155,"longitude":23.3615212482},{"id":"A0864","name":"УЛ. БИСТРИШКО ШОСЕ","latitude":42.6246707837,"longitude":23.3570480613},{"id":"A1171","name":"ОКОЛОВРЪСТЕН ПЪТ","latitude":42.6428325258,"longitude":23.3129641131},{"id":"A0914","name":"КВ. КРЪСТОВА ВАДА","latitude":42.6495183343,"longitude":23.315506076},{"id":"A0783","name":"УЛ. АСЕН ЙОРДАНОВ","latitude":42.6534752786,"longitude":23.3160159873},{"id":"A2780","name":"МЕТРОСТАНЦИЯ ВИТОША","latitude":42.6575357789,"longitude":23.3162933053},{"id":"A2654","name":"МЕТРОСТАНЦИЯ ВИТОША","latitude":42.660114614,"longitude":23.3167935117},{"id":"A0342","name":"БУЛ. НИКОЛА ВАПЦАРОВ","latitude":42.6643701257,"longitude":23.3174751933},{"id":"A2039","name":"УЛ. ЛЮБОТРЪН","latitude":42.6685007713,"longitude":23.3192630777},{"id":"A0923","name":"ЧИТАЛИЩЕ ПЕНЧО П.СЛАВЕЙКОВ 1921","latitude":42.6706575627,"longitude":23.3204942335},{"id":"A6614","name":"УЛ. ПРЕЗВИТЕР КОЗМА","latitude":42.6751493321,"longitude":23.3222703092},{"id":"A1325","name":"ХОТЕЛ ХЕМУС","latitude":42.6783525831,"longitude":23.3206043785},{"id":"A0648","name":"Ж.К. ЛОЗЕНЕЦ","latitude":42.675808044,"longitude":23.3146969804}]},"direction1":{"name":"Ж.К. ЛОЗЕНЕЦ - МЕТРОСТАНЦИЯ АКАД. А. Т.- БАЛАН","stops":[{"id":"A6639","name":"Ж.К. ЛОЗЕНЕЦ","latitude":42.6753369883,"longitude":23.3142833062},{"id":"A1345","name":"ПК СПАРТАК","latitude":42.6755574133,"longitude":23.3154040657},{"id":"A1322","name":"ХОТЕЛ ХЕМУС","latitude":42.6775390188,"longitude":23.3217564398},{"id":"A6615","name":"УЛ. ПРЕЗВИТЕР КОЗМА","latitude":42.6748995635,"longitude":23.3221204246},{"id":"A0922","name":"ЧИТАЛИЩЕ ПЕНЧО П. СЛАВЕЙКОВ 1921","latitude":42.6704224441,"longitude":23.3203010413},{"id":"A2038","name":"УЛ. ЛЮБОТРЪН","latitude":42.6687190903,"longitude":23.3193390163},{"id":"A0343","name":"БУЛ. НИКОЛА ВАПЦАРОВ","latitude":42.6653655101,"longitude":23.3175911675},{"id":"A2756","name":"МЕТРОСТАНЦИЯ ВИТОША","latitude":42.6578364876,"longitude":23.316035059},{"id":"A0786","name":"УЛ. АСЕН ЙОРДАНОВ","latitude":42.6524677612,"longitude":23.3158854346},{"id":"A0919","name":"КВ. КРЪСТОВА ВАДА","latitude":42.6478646731,"longitude":23.3148626163},{"id":"A1176","name":"ОКОЛОВРЪСТЕН ПЪТ","latitude":42.6427898982,"longitude":23.312703243},{"id":"A1457","name":"РАЗКЛОНА ЗА КВ.ДРАГАЛЕВЦИ","latitude":42.6409649018,"longitude":23.3135344558},{"id":"A0865","name":"УЛ. БИСТРИШКО ШОСЕ","latitude":42.6242428646,"longitude":23.3564923697},{"id":"A2623","name":"В.З. МАЛИНОВА ДОЛИНА","latitude":42.6236932378,"longitude":23.3620102603},{"id":"A2624","name":"РЕЗИДЕНШЪЛ ПАРК СОФИЯ","latitude":42.623139763,"longitude":23.3710776839},{"id":"A2649","name":"МЕСТНОСТ КАМБАНИТЕ","latitude":42.6230053195,"longitude":23.374793377},{"id":"A2491","name":"МЕТРОСТАНЦИЯ БИЗНЕС ПАРК","latitude":42.6281652316,"longitude":23.3734733651},{"id":"A0219","name":"БЛ. 437 Ж.К. МЛАДОСТ-4","latitude":42.6308110979,"longitude":23.3751488946},{"id":"A2489","name":"БЛ. 325 Ж.К. МЛАДОСТ-3","latitude":42.6360314885,"longitude":23.3750672431},{"id":"A2487","name":"БЛ. 323 Ж.К. МЛАДОСТ-3","latitude":42.639271713,"longitude":23.3750204737},{"id":"A2752","name":"МЕТРОСТАНЦИЯ АКАД. А. Т.- БАЛАН","latitude":42.6403828757,"longitude":23.3727976342}]}},{"line":"A108","direction0":{"name":"СТАДИОН ЛОКОМОТИВ - Ж.К. ЛЮЛИН-5","stops":[{"id":"A6769","name":"СТАДИОН ЛОКОМОТИВ","latitude":42.738014313,"longitude":23.3172462668},{"id":"A0744","name":"СОФАРМА АД","latitude":42.7358272252,"longitude":23.3174849066},{"id":"A0728","name":"ЗАГ ДИНАМИК АД","latitude":42.7316495072,"longitude":23.3171343815},{"id":"A1764","name":"ПГХМБТ ПРОФ. П. РАЙКОВ","latitude":42.7324661401,"longitude":23.3121003399},{"id":"A2574","name":"УЛ. ГЕН. НИКОЛА ЖЕКОВ","latitude":42.7342843446,"longitude":23.3084720759},{"id":"A2578","name":"102-РО ОУ","latitude":42.7359377841,"longitude":23.3050307947},{"id":"A0018","name":"24-ТИ ДКЦ","latitude":42.7369919315,"longitude":23.301040336},{"id":"A0221","name":"БЛ. 458 Ж.К. НАДЕЖДА-4","latitude":42.7376138062,"longitude":23.2967305763},{"id":"A0333","name":"БУЛ. ЛОМСКО ШОСЕ","latitude":42.7360548774,"longitude":23.2939669312},{"id":"A0330","name":"БУЛ. ЛОМСКО ШОСЕ","latitude":42.734301726,"longitude":23.2908008215},{"id":"A0188","name":"БЛ. 302 Ж.К. НАДЕЖДА-3","latitude":42.7324703943,"longitude":23.2876364491},{"id":"A0675","name":"ОБЩИНА ВРЪБНИЦА","latitude":42.7319276922,"longitude":23.285468186},{"id":"A2052","name":"УЛ. НАДЕЖДА","latitude":42.7245715211,"longitude":23.2813744288},{"id":"A1200","name":"УЛ. ВРЪХ МАНЧО","latitude":42.7216947176,"longitude":23.2815931439},{"id":"A0716","name":"СПИИДО ЕООД","latitude":42.7205289596,"longitude":23.285277964},{"id":"A2399","name":"ЗАПАДЕН ПАРК","latitude":42.7158083658,"longitude":23.2838291347},{"id":"A2091","name":"УЛ. ОРИОН","latitude":42.7181617602,"longitude":23.2779604813},{"id":"A2166","name":"УЛ. ЛУИ ПАСТЬОР","latitude":42.7208247827,"longitude":23.2730421609},{"id":"A0511","name":"ЧИТАЛИЩЕ СВ.СВ. КИРИЛ И МЕТОДИЙ","latitude":42.722211406,"longitude":23.2704898378},{"id":"A1781","name":"ТРИЪГЪЛНИКА Ж.К. ЛЮЛИН","latitude":42.7253411624,"longitude":23.2647493481},{"id":"A1061","name":"МЕТРОСТАНЦИЯ СЛИВНИЦА","latitude":42.7263684588,"longitude":23.2613042651},{"id":"A2364","name":"УЛ. ПРОФ. АЛ. СТАНИШЕВ","latitude":42.7226361794,"longitude":23.2575745995},{"id":"A2681","name":"ХИПЕРМАРКЕТ БИЛА","latitude":42.7204719478,"longitude":23.2553851393},{"id":"A0030","name":"36-ТИ ПОЩЕНСКИ КЛОН","latitude":42.7207399126,"longitude":23.2529053355},{"id":"A0185","name":"БЛ. 301 Ж.К. ЛЮЛИН-3","latitude":42.7233208739,"longitude":23.2481316187},{"id":"A0198","name":"БЛ. 350 Ж.К. ЛЮЛИН-3","latitude":42.7249755807,"longitude":23.2450843507},{"id":"A0200","name":"БЛ. 350 Ж.К. ЛЮЛИН-3","latitude":42.7249294681,"longitude":23.2436570183},{"id":"A0654","name":"Ж.К. ЛЮЛИН-3","latitude":42.7208490035,"longitude":23.2404239222},{"id":"A0657","name":"Ж.К. ЛЮЛИН-5","latitude":42.7164761894,"longitude":23.2376659155}]},"direction1":{"name":"Ж.К. ЛЮЛИН-5 - СТАДИОН ЛОКОМОТИВ","stops":[{"id":"A0657","name":"Ж.К. ЛЮЛИН-5","latitude":42.7164761894,"longitude":23.2376659155},{"id":"A0651","name":"Ж.К. ЛЮЛИН-3","latitude":42.7217804755,"longitude":23.2413802239},{"id":"A0199","name":"БЛ. 350 Ж.К. ЛЮЛИН-3","latitude":42.7249954549,"longitude":23.2448238224},{"id":"A0186","name":"БЛ. 301 Ж.К. ЛЮЛИН-3","latitude":42.7228333676,"longitude":23.2488047634},{"id":"A0029","name":"36-ТИ ПОЩЕНСКИ КЛОН","latitude":42.7206654906,"longitude":23.2527800844},{"id":"A2306","name":"ХИПЕРМАРКЕТ БИЛА","latitude":42.7204000853,"longitude":23.2556693398},{"id":"A2357","name":"УЛ. ПРОФ. АЛ. СТАНИШЕВ","latitude":42.7239134976,"longitude":23.2591833437},{"id":"A1060","name":"МЕТРОСТАНЦИЯ СЛИВНИЦА","latitude":42.7262568912,"longitude":23.2627905665},{"id":"A1783","name":"ТРИЪГЪЛНИКА Ж.К. ЛЮЛИН","latitude":42.7247496475,"longitude":23.265518804},{"id":"A0512","name":"ЧИТАЛИЩЕ СВ.СВ. КИРИЛ И МЕТОДИЙ","latitude":42.7224485985,"longitude":23.2697200253},{"id":"A2167","name":"УЛ. ЛУИ ПАСТЬОР","latitude":42.7203056627,"longitude":23.2737131225},{"id":"A2093","name":"УЛ. ОРИОН","latitude":42.7170883121,"longitude":23.2795121308},{"id":"A1252","name":"ЗАПАДЕН ПАРК","latitude":42.7162158405,"longitude":23.2851152826},{"id":"A0715","name":"СПИИДО ЕООД","latitude":42.7212078224,"longitude":23.2847353174},{"id":"A1201","name":"УЛ. ВРЪХ МАНЧО","latitude":42.7221409707,"longitude":23.2807046555},{"id":"A2051","name":"УЛ. НАДЕЖДА","latitude":42.7249323973,"longitude":23.2816529317},{"id":"A0187","name":"БЛ. 302 Ж.К. НАДЕЖДА-3","latitude":42.732273002,"longitude":23.2876566882},{"id":"A0334","name":"БУЛ. ЛОМСКО ШОСЕ","latitude":42.735969932,"longitude":23.2940366256},{"id":"A0222","name":"БЛ. 458 Ж.К. НАДЕЖДА-4","latitude":42.7375357061,"longitude":23.2984507032},{"id":"A0019","name":"24-ТИ ДКЦ","latitude":42.7367815861,"longitude":23.301642073},{"id":"A0002","name":"102-РО ОУ","latitude":42.7357571223,"longitude":23.3052081311},{"id":"A1901","name":"УЛ. ГЕН. НИКОЛА ЖЕКОВ","latitude":42.7341123997,"longitude":23.3086186977},{"id":"A1763","name":"ПГХМБТ ПРОФ. П. РАЙКОВ","latitude":42.7323421026,"longitude":23.3122328139},{"id":"A6698","name":"БУЛ. РОЖЕН","latitude":42.7321911307,"longitude":23.3135958222},{"id":"A6769","name":"СТАДИОН ЛОКОМОТИВ","latitude":42.738014313,"longitude":23.3172462668}]}},{"line":"A18","direction0":{"name":"АВТОСТАНЦИЯ ОРЛАНДОВЦИ - МЕЛНИЦАТА ЧЕПИНЦИ","stops":[{"id":"A0063","name":"АВТОСТАНЦИЯ ОРЛАНДОВЦИ","latitude":42.7157298106,"longitude":23.3425159977},{"id":"A0862","name":"КВ. МАЛАШЕВЦИ","latitude":42.7145297828,"longitude":23.3476670448},{"id":"A1095","name":"МОСТА НА ВЛАДАЙСКА РЕКА","latitude":42.7164044047,"longitude":23.3523466421},{"id":"A2733","name":"ПАЗАР МАЛАШЕВЦИ","latitude":42.7185208349,"longitude":23.3592159408},{"id":"A1147","name":"ГРОБИЩЕН ПАРК МАЛАШЕВЦИ","latitude":42.7203067546,"longitude":23.3630275789},{"id":"A0920","name":"УЛ. ЧЕПИНСКО ШОСЕ","latitude":42.7235410713,"longitude":23.3697103294},{"id":"A1420","name":"ПТИЦЕФЕРМАТА","latitude":42.7256349298,"longitude":23.3741979164},{"id":"A1654","name":"ПРОМИШЛЕНА ЗОНА","latitude":42.7294994034,"longitude":23.3824311151},{"id":"A2746","name":"СКЛАДОВА БАЗА ЧЕПИНСКО ШОСЕ","latitude":42.7314228601,"longitude":23.3864873821},{"id":"A1262","name":"ПЕТТЕ МОГИЛИ","latitude":42.7331525581,"longitude":23.3901320502},{"id":"A1100","name":"МОСТА НА Р. ИСКЪР","latitude":42.7368147781,"longitude":23.3957196289},{"id":"A1206","name":"ОПИТНА СТАНЦИЯ","latitude":42.7414580563,"longitude":23.4047248827},{"id":"A0739","name":"ЗЕЛЕНЧУКОВА ГРАДИНА","latitude":42.743893462,"longitude":23.4087071625},{"id":"A1359","name":"КАРИЕРНИ МАТЕРИАЛИ АД","latitude":42.7522835751,"longitude":23.4204639486},{"id":"A1563","name":"СЕЛО ЧЕПИНЦИ","latitude":42.7574602534,"longitude":23.4256206558},{"id":"A2363","name":"ПЛ. ВИТОША","latitude":42.7560193989,"longitude":23.429954971},{"id":"A1222","name":"УЛ. НАДЕЖДА","latitude":42.7539272522,"longitude":23.4347987016},{"id":"A1038","name":"МЕЛНИЦАТА ЧЕПИНЦИ","latitude":42.750631066,"longitude":23.4347482911}]},"direction1":{"name":"МЕЛНИЦАТА ЧЕПИНЦИ - АВТОСТАНЦИЯ ОРЛАНДОВЦИ","stops":[{"id":"A1038","name":"МЕЛНИЦАТА ЧЕПИНЦИ","latitude":42.750631066,"longitude":23.4347482911},{"id":"A1223","name":"УЛ. НАДЕЖДА","latitude":42.7541587877,"longitude":23.4347531601},{"id":"A2362","name":"ПЛ. ВИТОША","latitude":42.7561410263,"longitude":23.4297515541},{"id":"A1564","name":"СЕЛО ЧЕПИНЦИ","latitude":42.7575536333,"longitude":23.4257259701},{"id":"A1358","name":"КАРИЕРНИ МАТЕРИАЛИ АД","latitude":42.75275525,"longitude":23.4210212545},{"id":"A0738","name":"ЗЕЛЕНЧУКОВА ГРАДИНА","latitude":42.7442748923,"longitude":23.4091277249},{"id":"A1205","name":"ОПИТНА СТАНЦИЯ","latitude":42.741440669,"longitude":23.404566859},{"id":"A1099","name":"МОСТА НА Р. ИСКЪР","latitude":42.7367439065,"longitude":23.3953892259},{"id":"A1263","name":"ПЕТТЕ МОГИЛИ","latitude":42.7330045484,"longitude":23.3896576969},{"id":"A2745","name":"СКЛАДОВА БАЗА ЧЕПИНСКО ШОСЕ","latitude":42.7314002749,"longitude":23.3862665411},{"id":"A1655","name":"ПРОМИШЛЕНА ЗОНА","latitude":42.7294983823,"longitude":23.3822638843},{"id":"A1421","name":"ПТИЦЕФЕРМАТА","latitude":42.7254916942,"longitude":23.3737158847},{"id":"A0921","name":"УЛ. ЧЕПИНСКО ШОСЕ","latitude":42.7233408105,"longitude":23.3691334013},{"id":"A1146","name":"ГРОБИЩЕН ПАРК МАЛАШЕВЦИ","latitude":42.7203056112,"longitude":23.3627820213},{"id":"A2732","name":"ПАЗАР МАЛАШЕВЦИ","latitude":42.7185546428,"longitude":23.3591569028},{"id":"A1094","name":"МОСТА НА ВЛАДАЙСКА РЕКА","latitude":42.7166763863,"longitude":23.3519304677},{"id":"A0863","name":"КВ. МАЛАШЕВЦИ","latitude":42.7147517864,"longitude":23.3475579073},{"id":"A6382","name":"УЛ. ПЪРВА БЪЛГАРСКА АРМИЯ","latitude":42.7128877246,"longitude":23.3439185131},{"id":"A0063","name":"АВТОСТАНЦИЯ ОРЛАНДОВЦИ","latitude":42.7157298106,"longitude":23.3425159977}]}},{"line":"A28","direction0":{"name":"СЕЛО ЛОКОРСКО - ЦЕНТЪР С. МРАМОР","stops":[{"id":"A1546","name":"СЕЛО ЛОКОРСКО","latitude":42.794487831,"longitude":23.4478763502},{"id":"A1667","name":"УЛ. ВЕСКО ВЕСЕЛИНОВ","latitude":42.7904324324,"longitude":23.4450303862},{"id":"A0979","name":"НАЧАЛО С. ЛОКОРСКО","latitude":42.7879847481,"longitude":23.4446409299},{"id":"A0496","name":"ГОРСКО СТОПАНСТВО","latitude":42.7709354848,"longitude":23.4392016848},{"id":"A0696","name":"ГАРА ЧЕПИНЦИ","latitude":42.765501177,"longitude":23.4343481147},{"id":"A2287","name":"160 -ТО ОУ","latitude":42.7619568979,"longitude":23.4306449259},{"id":"A1565","name":"СЕЛО ЧЕПИНЦИ","latitude":42.7581113847,"longitude":23.4255765401},{"id":"A2094","name":"УЛ. ОРФЕЙ","latitude":42.7608948457,"longitude":23.4228643613},{"id":"A0508","name":"ГРОБИЩЕН ПАРК НЕГОВАН","latitude":42.7669039525,"longitude":23.4087471239},{"id":"A1554","name":"СЕЛО НЕГОВАН","latitude":42.7687870877,"longitude":23.4058673343},{"id":"A0984","name":"УЛ. ВРАЧАНСКА","latitude":42.7722788951,"longitude":23.4003660373},{"id":"A2544","name":"УЛ. ЛЕСНОВСКА РЕКА","latitude":42.7809179841,"longitude":23.3923206139},{"id":"A0948","name":"КМЕТСТВО СВЕТОВРАЧАНЕ","latitude":42.7824450416,"longitude":23.3877174673},{"id":"A1557","name":"СЕЛО СВЕТОВРАЧАНЕ","latitude":42.782946452,"longitude":23.3903382109},{"id":"A1765","name":"УЛ. ТРАКИЙСКА МОГИЛА","latitude":42.7837597558,"longitude":23.3949173758},{"id":"A2872","name":"УЛ. ВОЙНЕШКИ ПЪТ - ПО ЖЕЛАНИЕ","latitude":42.7853814742,"longitude":23.3971530527},{"id":"A1367","name":"ПО ЖЕЛАНИЕ","latitude":42.7943686001,"longitude":23.4125005424},{"id":"A1646","name":"НАЧАЛО С. ВОЙНЕГОВЦИ - ПО ЖЕЛАНИЕ","latitude":42.7987375776,"longitude":23.4220473615},{"id":"A2340","name":"ЦЕНТЪР С. ВОЙНЕГОВЦИ","latitude":42.8018149662,"longitude":23.422442847},{"id":"A1516","name":"СЕЛО ВОЙНЕГОВЦИ","latitude":42.8039556296,"longitude":23.4228707776},{"id":"A2341","name":"ЦЕНТЪР С. ВОЙНЕГОВЦИ","latitude":42.8012498855,"longitude":23.4220541559},{"id":"A1647","name":"НАЧАЛО С. ВОЙНЕГОВЦИ - ПО ЖЕЛАНИЕ","latitude":42.7984624384,"longitude":23.4218095559},{"id":"A1366","name":"ПО ЖЕЛАНИЕ","latitude":42.7943557363,"longitude":23.4122993038},{"id":"A1679","name":"НАЧАЛО С. ПОДГУМЕР - ПО ЖЕЛАНИЕ","latitude":42.7976993705,"longitude":23.3981225983},{"id":"A2416","name":"УЛ. МЛАДОСТ - ПО ЖЕЛАНИЕ","latitude":42.7998005615,"longitude":23.4007897241},{"id":"A2344","name":"ЦЕНТЪР С. ПОДГУМЕР","latitude":42.8028620378,"longitude":23.4028178119},{"id":"A2183","name":"СЕЛО ПОДГУМЕР","latitude":42.80687754,"longitude":23.4043906647},{"id":"A2188","name":"СЕЛО ПОДГУМЕР","latitude":42.8068642531,"longitude":23.4043160299},{"id":"A2345","name":"ЦЕНТЪР С. ПОДГУМЕР","latitude":42.8026759608,"longitude":23.402534113},{"id":"A2415","name":"УЛ. МЛАДОСТ - ПО ЖЕЛАНИЕ","latitude":42.7999763725,"longitude":23.4008634777},{"id":"A1680","name":"НАЧАЛО С. ПОДГУМЕР - ПО ЖЕЛАНИЕ","latitude":42.7975957707,"longitude":23.3978894125},{"id":"A0099","name":"БАНЯТА КВ. ГНИЛЯНЕ","latitude":42.8005876724,"longitude":23.379944961},{"id":"A1124","name":"НАЧАЛО КВ. ГНИЛЯНЕ","latitude":42.805215609,"longitude":23.378422279},{"id":"A0827","name":"КВ. ГНИЛЯНЕ","latitude":42.808962668,"longitude":23.376141153},{"id":"A1626","name":"СТАРАТА ЧЕШМА - ПО ЖЕЛАНИЕ","latitude":42.8121461938,"longitude":23.3774940882},{"id":"A2027","name":"УЛ. ЛИВАДИТЕ - ПО ЖЕЛАНИЕ","latitude":42.8167414933,"longitude":23.3739457767},{"id":"A0841","name":"КВ. ИЗГРЕВ - ПО ЖЕЛАНИЕ","latitude":42.8198531814,"longitude":23.3730167955},{"id":"A0798","name":"КАУЧУКОВ ЗАВОД ЗЕБРА - ПО ЖЕЛАНИЕ","latitude":42.8208482987,"longitude":23.3654401665},{"id":"A2749","name":"УЛ. АЛ. СТАМБОЛИЙСКИ","latitude":42.8203219378,"longitude":23.3608078112},{"id":"A0459","name":"ГАРА КУРИЛО - ПО ЖЕЛАНИЕ","latitude":42.8182983606,"longitude":23.3559751286},{"id":"A1832","name":"УЛ. БАБА ТОНКА - ПО ЖЕЛАНИЕ","latitude":42.8152377556,"longitude":23.3521127357},{"id":"A1851","name":"УЛ. БЪДЕЩЕ - ПО ЖЕЛАНИЕ","latitude":42.810285702,"longitude":23.350595285},{"id":"A0925","name":"БАЛКАНКЕРАМИК АД - ПО ЖЕЛАНИЕ","latitude":42.8065735397,"longitude":23.3479577735},{"id":"A0955","name":"ОБЩИНА НОВИ ИСКЪР - ПО ЖЕЛАНИЕ","latitude":42.8028067994,"longitude":23.3435908819},{"id":"A0857","name":"КВ. КУМАРИЦА","latitude":42.8010937743,"longitude":23.340252806},{"id":"A1209","name":"ОРАНЖЕРИЯТА - ПО ЖЕЛАНИЕ","latitude":42.8020191273,"longitude":23.3368323568},{"id":"A1003","name":"ЛЕТИЩЕ ДОБРОСЛАВЦИ - ПО ЖЕЛАНИЕ","latitude":42.8183217694,"longitude":23.3137079911},{"id":"A1239","name":"ПАМЕТНИКА С. ДОБРОСЛАВЦИ","latitude":42.8222607137,"longitude":23.2860859905},{"id":"A1286","name":"ПЛ. МЕГДАНА","latitude":42.8219765956,"longitude":23.2831220822},{"id":"A2611","name":"УЛ. МОГИЛКА","latitude":42.8226485918,"longitude":23.278061269},{"id":"A1536","name":"СЕЛО ЖИТЕН","latitude":42.8182585009,"longitude":23.2510456224},{"id":"A1122","name":"УЛ. МИНЗУХАР","latitude":42.8150636711,"longitude":23.2531605553},{"id":"A2350","name":"НАЧАЛО С. ЖИТЕН","latitude":42.8112855653,"longitude":23.2561307756},{"id":"A0117","name":"БИОМЕТ ЕООД - ПО ЖЕЛАНИЕ","latitude":42.8011428515,"longitude":23.264177815},{"id":"A0438","name":"КРАЯ С. МРАМОР","latitude":42.7887596816,"longitude":23.2724797401},{"id":"A1550","name":"СЕЛО МРАМОР","latitude":42.78533605,"longitude":23.2736109322},{"id":"A2348","name":"ЦЕНТЪР С. МРАМОР","latitude":42.7845690596,"longitude":23.2732811324}]},"direction1":{"name":"ЦЕНТЪР С. МРАМОР - СЕЛО ЛОКОРСКО","stops":[{"id":"A2348","name":"ЦЕНТЪР С. МРАМОР","latitude":42.7845690596,"longitude":23.2732811324},{"id":"A1551","name":"СЕЛО МРАМОР","latitude":42.7858319173,"longitude":23.2736028773},{"id":"A0439","name":"КРАЯ С. МРАМОР","latitude":42.7885251162,"longitude":23.2727354902},{"id":"A0116","name":"БИОМЕТ ЕООД - ПО ЖЕЛАНИЕ","latitude":42.8012299975,"longitude":23.2642098331},{"id":"A2349","name":"НАЧАЛО С. ЖИТЕН","latitude":42.8114924385,"longitude":23.256076779},{"id":"A1123","name":"УЛ. МИНЗУХАР","latitude":42.8152685692,"longitude":23.2531016331},{"id":"A1534","name":"СЕЛО ЖИТЕН","latitude":42.8185986489,"longitude":23.2512096656},{"id":"A2612","name":"УЛ. МОГИЛКА","latitude":42.8225210102,"longitude":23.27845068},{"id":"A1285","name":"ПЛ. МЕГДАНА","latitude":42.8217647814,"longitude":23.2830575965},{"id":"A1237","name":"ПАМЕТНИКА С. ДОБРОСЛАВЦИ","latitude":42.8219175982,"longitude":23.286217282},{"id":"A1004","name":"ЛЕТИЩЕ ДОБРОСЛАВЦИ - ПО ЖЕЛАНИЕ","latitude":42.8182302231,"longitude":23.313974484},{"id":"A1208","name":"ОРАНЖЕРИЯТА - ПО ЖЕЛАНИЕ","latitude":42.8016916431,"longitude":23.3374297771},{"id":"A0858","name":"КВ. КУМАРИЦА","latitude":42.8008951716,"longitude":23.3403803338},{"id":"A0956","name":"ОБЩИНА НОВИ ИСКЪР - ПО ЖЕЛАНИЕ","latitude":42.8031144959,"longitude":23.3441899823},{"id":"A0924","name":"БАЛКАНКЕРАМИК АД - ПО ЖЕЛАНИЕ","latitude":42.8069041005,"longitude":23.3484418278},{"id":"A1850","name":"УЛ. БЪДЕЩЕ - ПО ЖЕЛАНИЕ","latitude":42.8111218385,"longitude":23.3510233082},{"id":"A1831","name":"УЛ. БАБА ТОНКА - ПО ЖЕЛАНИЕ","latitude":42.8155074233,"longitude":23.3523390995},{"id":"A0457","name":"ГАРА КУРИЛО - ПО ЖЕЛАНИЕ","latitude":42.8180733249,"longitude":23.3559076772},{"id":"A2748","name":"УЛ. АЛ. СТАМБОЛИЙСКИ","latitude":42.8203793023,"longitude":23.361138716},{"id":"A0799","name":"КАУЧУКОВ ЗАВОД ЗЕБРА - ПО ЖЕЛАНИЕ","latitude":42.8207925906,"longitude":23.3657179457},{"id":"A0846","name":"КВ. ИЗГРЕВ - ПО ЖЕЛАНИЕ","latitude":42.8199616408,"longitude":23.3728052962},{"id":"A2028","name":"УЛ. ЛИВАДИТЕ - ПО ЖЕЛАНИЕ","latitude":42.8169178329,"longitude":23.3738733508},{"id":"A1627","name":"СТАРАТА ЧЕШМА - ПО ЖЕЛАНИЕ","latitude":42.8120534558,"longitude":23.377316766},{"id":"A0828","name":"КВ. ГНИЛЯНЕ","latitude":42.8094922844,"longitude":23.3761164585},{"id":"A1125","name":"НАЧАЛО КВ. ГНИЛЯНЕ","latitude":42.8052043013,"longitude":23.3783209039},{"id":"A0100","name":"БАНЯТА КВ. ГНИЛЯНЕ","latitude":42.8002065327,"longitude":23.3802111642},{"id":"A1679","name":"НАЧАЛО С. ПОДГУМЕР - ПО ЖЕЛАНИЕ","latitude":42.7976993705,"longitude":23.3981225983},{"id":"A2416","name":"УЛ. МЛАДОСТ - ПО ЖЕЛАНИЕ","latitude":42.7998005615,"longitude":23.4007897241},{"id":"A2344","name":"ЦЕНТЪР С. ПОДГУМЕР","latitude":42.8028620378,"longitude":23.4028178119},{"id":"A2183","name":"СЕЛО ПОДГУМЕР","latitude":42.80687754,"longitude":23.4043906647},{"id":"A2188","name":"СЕЛО ПОДГУМЕР","latitude":42.8068642531,"longitude":23.4043160299},{"id":"A2345","name":"ЦЕНТЪР С. ПОДГУМЕР","latitude":42.8026759608,"longitude":23.402534113},{"id":"A2415","name":"УЛ. МЛАДОСТ - ПО ЖЕЛАНИЕ","latitude":42.7999763725,"longitude":23.4008634777},{"id":"A1680","name":"НАЧАЛО С. ПОДГУМЕР - ПО ЖЕЛАНИЕ","latitude":42.7975957707,"longitude":23.3978894125},{"id":"A1367","name":"ПО ЖЕЛАНИЕ","latitude":42.7943686001,"longitude":23.4125005424},{"id":"A1646","name":"НАЧАЛО С. ВОЙНЕГОВЦИ - ПО ЖЕЛАНИЕ","latitude":42.7987375776,"longitude":23.4220473615},{"id":"A2340","name":"ЦЕНТЪР С. ВОЙНЕГОВЦИ","latitude":42.8018149662,"longitude":23.422442847},{"id":"A1516","name":"СЕЛО ВОЙНЕГОВЦИ","latitude":42.8039556296,"longitude":23.4228707776},{"id":"A2341","name":"ЦЕНТЪР С. ВОЙНЕГОВЦИ","latitude":42.8012498855,"longitude":23.4220541559},{"id":"A1647","name":"НАЧАЛО С. ВОЙНЕГОВЦИ - ПО ЖЕЛАНИЕ","latitude":42.7984624384,"longitude":23.4218095559},{"id":"A1366","name":"ПО ЖЕЛАНИЕ","latitude":42.7943557363,"longitude":23.4122993038},{"id":"A2873","name":"УЛ. ВОЙНЕШКИ ПЪТ - ПО ЖЕЛАНИЕ","latitude":42.7858010268,"longitude":23.3982181695},{"id":"A1766","name":"УЛ. ТРАКИЙСКА МОГИЛА","latitude":42.7835449804,"longitude":23.3945370193},{"id":"A1559","name":"СЕЛО СВЕТОВРАЧАНЕ","latitude":42.7830461409,"longitude":23.3909188529},{"id":"A0949","name":"КМЕТСТВО СВЕТОВРАЧАНЕ","latitude":42.7823307861,"longitude":23.3876530962},{"id":"A2545","name":"УЛ. ЛЕСНОВСКА РЕКА","latitude":42.7809398872,"longitude":23.3920523181},{"id":"A0983","name":"УЛ. ВРАЧАНСКА","latitude":42.7719640559,"longitude":23.4008040864},{"id":"A1555","name":"СЕЛО НЕГОВАН","latitude":42.769098586,"longitude":23.4049722578},{"id":"A0507","name":"ГРОБИЩЕН ПАРК НЕГОВАН","latitude":42.7668237552,"longitude":23.4088060943},{"id":"A2095","name":"УЛ. ОРФЕЙ","latitude":42.7607156505,"longitude":23.4228447791},{"id":"A1562","name":"СЕЛО ЧЕПИНЦИ","latitude":42.7579170307,"longitude":23.4257454933},{"id":"A2286","name":"УЛ. УЧИЛИЩНА","latitude":42.761050342,"longitude":23.429595432},{"id":"A2288","name":"160-ТО ОУ","latitude":42.7624443033,"longitude":23.4314171529},{"id":"A0695","name":"ГАРА ЧЕПИНЦИ","latitude":42.7655968206,"longitude":23.4345243906},{"id":"A0495","name":"ГОРСКО СТОПАНСТВО","latitude":42.7709781904,"longitude":23.4393311568},{"id":"A0978","name":"НАЧАЛО С. ЛОКОРСКО","latitude":42.7880922686,"longitude":23.4447113974},{"id":"A1668","name":"УЛ. ВЕСКО ВЕСЕЛИНОВ","latitude":42.790314549,"longitude":23.4450994401},{"id":"A1546","name":"СЕЛО ЛОКОРСКО","latitude":42.794487831,"longitude":23.4478763502}]}},{"line":"A3","direction0":{"name":"СЕЛО ДОЛНИ ПАСАРЕЛ - УЛ. ГЕН. ГУРКО","stops":[{"id":"A1528","name":"СЕЛО ДОЛНИ ПАСАРЕЛ","latitude":42.5415355871,"longitude":23.4979826139},{"id":"A1089","name":"МОСТА ДОЛНИ ПАСАРЕЛ","latitude":42.5386639003,"longitude":23.4998853998},{"id":"A0421","name":"ВЕЦ ПАСАРЕЛ - ПО ЖЕЛАНИЕ","latitude":42.543124162,"longitude":23.4884855271},{"id":"A1230","name":"ЯЗ. ПАСАРЕЛ - ПО ЖЕЛАНИЕ","latitude":42.5493503062,"longitude":23.4804780206},{"id":"A0103","name":"БАРАЖА ЯЗ. ПАСАРЕЛ - ПО ЖЕЛАНИЕ","latitude":42.5496457992,"longitude":23.4712910079},{"id":"A1473","name":"РЕСТОРАНТ ЗЛАТНАТА РИБКА - ПО ЖЕЛАНИЕ","latitude":42.5612503246,"longitude":23.4517433071},{"id":"A0731","name":"ЗАСЛОН СИНАНИЦА","latitude":42.5582249771,"longitude":23.4502031532},{"id":"A2267","name":"МАНАСТИР СВ. НИКОЛА - ПО ЖЕЛАНИЕ","latitude":42.5546034024,"longitude":23.4282701474},{"id":"A0556","name":"ДЯВОЛСКИ МОСТ - ПО ЖЕЛАНИЕ","latitude":42.5607974255,"longitude":23.4226988933},{"id":"A1624","name":"В.З. КИТКАТА - ПО ЖЕЛАНИЕ","latitude":42.5720619684,"longitude":23.4323975029},{"id":"A0962","name":"КОКАЛЯНСКО ХАНЧЕ - ПО ЖЕЛАНИЕ","latitude":42.5828724837,"longitude":23.4240510938},{"id":"A1335","name":"ПЛАЖА ПАНЧАРЕВО - ПО ЖЕЛАНИЕ","latitude":42.5879241534,"longitude":23.4199281178},{"id":"A1244","name":"КВ. ПАНЧАРЕВО - ПО ЖЕЛАНИЕ","latitude":42.5964415452,"longitude":23.4134912925},{"id":"A0505","name":"ГРЕБНА БАЗА - ПО ЖЕЛАНИЕ","latitude":42.5979687683,"longitude":23.4062524782},{"id":"A0101","name":"БАНЯ ПАНЧАРЕВО - ПО ЖЕЛАНИЕ","latitude":42.6026471417,"longitude":23.4027779614},{"id":"A1428","name":"РАЗКЛОНА ЗА С. ГЕРМАН - ПО ЖЕЛАНИЕ","latitude":42.6077760333,"longitude":23.4003122813},{"id":"A0535","name":"ДЕТСКО ГРАДЧЕ - ПО ЖЕЛАНИЕ","latitude":42.6151468023,"longitude":23.4009808319},{"id":"A1503","name":"СБА - ПО ЖЕЛАНИЕ","latitude":42.6195732981,"longitude":23.4033890125},{"id":"A1182","name":"ОКОЛОВРЪСТЕН ПЪТ","latitude":42.6231139511,"longitude":23.4053455538},{"id":"A0830","name":"КВ. ГОРУБЛЯНЕ","latitude":42.6284362674,"longitude":23.4079200453},{"id":"A2256","name":"УЛ. ЦВЕТНА ГРАДИНА","latitude":42.6338868405,"longitude":23.4091544149},{"id":"A0777","name":"УЛ. ИНЖ. ГЕОРГИ БЕЛОВ","latitude":42.6389833871,"longitude":23.4059757555},{"id":"A1780","name":"ТРИЪГЪЛНИКА КВ. ГОРУБЛЯНЕ","latitude":42.641972282,"longitude":23.4027547698},{"id":"A2643","name":"К-С ЦАРИГРАДСКИ","latitude":42.6445464635,"longitude":23.4006345798},{"id":"A1016","name":"МЕТРОСТАНЦИЯ ЦАРИГРАДСКО ШОСЕ","latitude":42.6502955708,"longitude":23.3935582048},{"id":"A0086","name":"КОМПЛЕКС НА БАН","latitude":42.6537177373,"longitude":23.3892876612},{"id":"A0555","name":"ДЪРЖАВНА ПЕЧАТНИЦА","latitude":42.65686731,"longitude":23.3851985807},{"id":"A2593","name":"ХЕРМЕС ПАРК","latitude":42.6600138958,"longitude":23.380843481},{"id":"A1196","name":"УМБАЛ СВ. АННА","latitude":42.6627628106,"longitude":23.3769011901},{"id":"A2327","name":"ХОТЕЛ ПЛИСКА","latitude":42.6755579727,"longitude":23.3588933149},{"id":"A1289","name":"ПЛ. ОРЛОВ МОСТ","latitude":42.6903054022,"longitude":23.3363953509},{"id":"A2601","name":"УЛ. ГЕН. ГУРКО","latitude":42.6898420843,"longitude":23.3319406469}]},"direction1":{"name":"УЛ. ГЕН. ГУРКО - СЕЛО ДОЛНИ ПАСАРЕЛ","stops":[{"id":"A1903","name":"УЛ. ГЕН. ГУРКО","latitude":42.6905962556,"longitude":23.3320875471},{"id":"A1287","name":"ПЛ. ОРЛОВ МОСТ","latitude":42.689337378,"longitude":23.3389001392},{"id":"A2326","name":"ХОТЕЛ ПЛИСКА","latitude":42.6750221405,"longitude":23.3591537954},{"id":"A1194","name":"УМБАЛ СВ. АННА","latitude":42.6626478134,"longitude":23.376438429},{"id":"A0554","name":"ДЪРЖАВНА ПЕЧАТНИЦА","latitude":42.6566505672,"longitude":23.3848675678},{"id":"A0084","name":"КОМПЛЕКС НА БАН","latitude":42.6537443633,"longitude":23.3886847069},{"id":"A1017","name":"МЕТРОСТАНЦИЯ ЦАРИГРАДСКО ШОСЕ","latitude":42.6491729066,"longitude":23.3935869549},{"id":"A1779","name":"ТРИЪГЪЛНИКА КВ. ГОРУБЛЯНЕ","latitude":42.6418598975,"longitude":23.4027173534},{"id":"A0778","name":"УЛ. ИНЖ. ГЕОРГИ БЕЛОВ","latitude":42.6380643395,"longitude":23.4064814946},{"id":"A2257","name":"УЛ. ЦВЕТНА ГРАДИНА","latitude":42.6328028721,"longitude":23.4090382677},{"id":"A0831","name":"КВ. ГОРУБЛЯНЕ","latitude":42.6279781251,"longitude":23.4075204743},{"id":"A1174","name":"ОКОЛОВРЪСТЕН ПЪТ","latitude":42.6230190711,"longitude":23.4050448875},{"id":"A1504","name":"СБА - ПО ЖЕЛАНИЕ","latitude":42.6195872687,"longitude":23.4032767441},{"id":"A0536","name":"ДЕТСКО ГРАДЧЕ - ПО ЖЕЛАНИЕ","latitude":42.6153691433,"longitude":23.4009826422},{"id":"A1427","name":"РАЗКЛОНА ЗА С. ГЕРМАН - ПО ЖЕЛАНИЕ","latitude":42.6075721592,"longitude":23.4002927889},{"id":"A0102","name":"БАНЯ ПАНЧАРЕВО - ПО ЖЕЛАНИЕ","latitude":42.6028539015,"longitude":23.402514023},{"id":"A0506","name":"ГРЕБНА БАЗА - ПО ЖЕЛАНИЕ","latitude":42.5975864525,"longitude":23.4066442008},{"id":"A1243","name":"КВ. ПАНЧАРЕВО - ПО ЖЕЛАНИЕ","latitude":42.5963334458,"longitude":23.4132635004},{"id":"A1334","name":"ПЛАЖА ПАНЧАРЕВО - ПО ЖЕЛАНИЕ","latitude":42.5873115745,"longitude":23.4202220521},{"id":"A0963","name":"КОКАЛЯНСКО ХАНЧЕ - ПО ЖЕЛАНИЕ","latitude":42.5818148266,"longitude":23.4246487431},{"id":"A1625","name":"В.З. КИТКАТА - ПО ЖЕЛАНИЕ","latitude":42.5720819416,"longitude":23.432160784},{"id":"A0557","name":"ДЯВОЛСКИ МОСТ - ПО ЖЕЛАНИЕ","latitude":42.5610410745,"longitude":23.4227064167},{"id":"A2266","name":"МАНАСТИР СВ. НИКОЛА - ПО ЖЕЛАНИЕ","latitude":42.5545410761,"longitude":23.4284368626},{"id":"A0732","name":"ЗАСЛОН СИНАНИЦА","latitude":42.5583646428,"longitude":23.4499873486},{"id":"A1474","name":"РЕСТОРАНТ ЗЛАТНАТА РИБКА - ПО ЖЕЛАНИЕ","latitude":42.5611161602,"longitude":23.4517398592},{"id":"A0104","name":"БАРАЖА ЯЗ. ПАСАРЕЛ - ПО ЖЕЛАНИЕ","latitude":42.5496244883,"longitude":23.4715359118},{"id":"A1229","name":"ЯЗ. ПАСАРЕЛ - ПО ЖЕЛАНИЕ","latitude":42.5491868795,"longitude":23.4801961768},{"id":"A0420","name":"ВЕЦ ПАСАРЕЛ - ПО ЖЕЛАНИЕ","latitude":42.5429384197,"longitude":23.4886763677},{"id":"A1088","name":"МОСТА ДОЛНИ ПАСАРЕЛ","latitude":42.5384421117,"longitude":23.4998418058},{"id":"A1528","name":"СЕЛО ДОЛНИ ПАСАРЕЛ","latitude":42.5415355871,"longitude":23.4979826139}]}},{"line":"A8","direction0":{"name":"СЕЛО КРИВИНА - СЕЛО ГЕРМАН","stops":[{"id":"A1541","name":"СЕЛО КРИВИНА","latitude":42.6819399091,"longitude":23.4627123759},{"id":"A1232","name":"ЦЕНТЪРА С. КРИВИНА","latitude":42.6803737809,"longitude":23.4642414712},{"id":"A2361","name":"УЛ. ЛЮЛЯК","latitude":42.6775551044,"longitude":23.4646217202},{"id":"A0714","name":"ПАРКА С.КРИВИНА","latitude":42.6748701685,"longitude":23.4650834058},{"id":"A0545","name":"ПРОМИШЛЕНА ЗОНА КРИВИНА","latitude":42.6697522552,"longitude":23.4642353518},{"id":"A0544","name":"РИТЕКС АД","latitude":42.6649496641,"longitude":23.4618826709},{"id":"A1537","name":"СЕЛО КАЗИЧЕНЕ","latitude":42.6622927969,"longitude":23.4645380791},{"id":"A0940","name":"КМЕТСТВО КАЗИЧЕНЕ","latitude":42.6597349098,"longitude":23.4648022912},{"id":"A2757","name":"УЛ. ДИМИТЪР АШОВ","latitude":42.6563808475,"longitude":23.4653772589},{"id":"A2244","name":"УЛ. ЦАР БОРИС ІІІ","latitude":42.6541822309,"longitude":23.46472763},{"id":"A0455","name":"ГАРА КАЗИЧЕНЕ","latitude":42.6548820634,"longitude":23.459510373},{"id":"A2726","name":"ЕЗЕРОТО - СЕЛО КАЗИЧЕНЕ","latitude":42.6578968097,"longitude":23.4547843813},{"id":"A2727","name":"ЦЕНТЪР КВ. ВИДНИТЕ","latitude":42.6593440463,"longitude":23.4537266521},{"id":"A2728","name":"ЕЗЕРОТО - СЕЛО КАЗИЧЕНЕ","latitude":42.6580209654,"longitude":23.4547380615},{"id":"A2729","name":"РАЗКЛОНА ЗА КВ. ВИДНИТЕ","latitude":42.6569261875,"longitude":23.456521972},{"id":"A0820","name":"КВ. ВИДНИТЕ","latitude":42.6586566221,"longitude":23.4581183846},{"id":"A0941","name":"КМЕТСТВО КАЗИЧЕНЕ","latitude":42.659840279,"longitude":23.4649011246},{"id":"A1538","name":"СЕЛО КАЗИЧЕНЕ","latitude":42.662352554,"longitude":23.4646395403},{"id":"A1623","name":"СТАДИОНА КАЗИЧЕНЕ","latitude":42.6648597218,"longitude":23.4599896114},{"id":"A0112","name":"БЕТОНОВ ВЪЗЕЛ КАЗИЧЕНЕ","latitude":42.6650742932,"longitude":23.4528256649},{"id":"A1702","name":"ПРОМИШЛЕНА ЗОНА КАЗИЧЕНЕ","latitude":42.6680781165,"longitude":23.4470268874},{"id":"A1640","name":"ПРОМИШЛЕНА ЗОНА БУСМАНЦИ","latitude":42.6723934837,"longitude":23.4388374479},{"id":"A0816","name":"КВ. БУСМАНЦИ","latitude":42.6756782704,"longitude":23.4334809024},{"id":"A0525","name":"ДЕТСКИ ДОМ","latitude":42.6736913541,"longitude":23.4303032119},{"id":"A1785","name":"ТРЪНСКА МАХАЛА","latitude":42.6682609026,"longitude":23.4246709055},{"id":"A1101","name":"МОСТА НА Р. ИСКЪР КВ. АБДОВИЦА","latitude":42.6654186924,"longitude":23.4221154649},{"id":"A0825","name":"ГАРА ИСКЪР","latitude":42.6631169962,"longitude":23.4156406329},{"id":"A0034","name":"КВ. ГАРА ИСКЪР","latitude":42.6620458523,"longitude":23.4154548688},{"id":"A0975","name":"СОФИЯ МЕД АД","latitude":42.6596299765,"longitude":23.4150995289},{"id":"A0520","name":"ДЕПО ИСКЪР","latitude":42.6560556858,"longitude":23.4145383162},{"id":"A1750","name":"ТЕЦ ИЗТОК","latitude":42.6505985747,"longitude":23.4137203449},{"id":"A1450","name":"РАЗКЛОНА ЗА АП ДРУЖБА","latitude":42.6491682353,"longitude":23.4134987371},{"id":"A0226","name":"БЛ. 501 Ж.К. ДРУЖБА-2","latitude":42.6432319149,"longitude":23.412242936},{"id":"A0498","name":"ГОРУБЛЯНСКО ХАНЧЕ","latitude":42.6377011899,"longitude":23.4112297502},{"id":"A2257","name":"УЛ. ЦВЕТНА ГРАДИНА","latitude":42.6328028721,"longitude":23.4090382677},{"id":"A0831","name":"КВ. ГОРУБЛЯНЕ","latitude":42.6279781251,"longitude":23.4075204743},{"id":"A1174","name":"ОКОЛОВРЪСТЕН ПЪТ","latitude":42.6230190711,"longitude":23.4050448875},{"id":"A2833","name":"РАЗКЛОНА ЗА С. ГЕРМАН","latitude":42.6210366427,"longitude":23.4201205814},{"id":"A1039","name":"СТАДИОНА ГЕРМАН","latitude":42.6175087127,"longitude":23.4174328648},{"id":"A0487","name":"86-ТИ ПОЩЕНСКИ КЛОН","latitude":42.6147621922,"longitude":23.4154708479},{"id":"A1517","name":"СЕЛО ГЕРМАН","latitude":42.6097283569,"longitude":23.4104536778}]},"direction1":{"name":"СЕЛО ГЕРМАН - СЕЛО КРИВИНА","stops":[{"id":"A1517","name":"СЕЛО ГЕРМАН","latitude":42.6097283569,"longitude":23.4104536778},{"id":"A0486","name":"86-ТИ ПОЩЕНСКИ КЛОН","latitude":42.6148017859,"longitude":23.4155913087},{"id":"A1037","name":"СТАДИОНА ГЕРМАН","latitude":42.6178636628,"longitude":23.417788932},{"id":"A2834","name":"РАЗКЛОНА ЗА С. ГЕРМАН","latitude":42.6211064416,"longitude":23.4202983306},{"id":"A2835","name":"РАЗКЛОНА ЗА С. ГЕРМАН","latitude":42.6220420259,"longitude":23.419588151},{"id":"A1182","name":"ОКОЛОВРЪСТЕН ПЪТ","latitude":42.6231139511,"longitude":23.4053455538},{"id":"A0830","name":"КВ. ГОРУБЛЯНЕ","latitude":42.6284362674,"longitude":23.4079200453},{"id":"A2255","name":"УЛ. ЦВЕТНА ГРАДИНА","latitude":42.6340588238,"longitude":23.4096624613},{"id":"A0497","name":"ГОРУБЛЯНСКО ХАНЧЕ","latitude":42.6381086611,"longitude":23.4115167286},{"id":"A0225","name":"БЛ. 501 Ж.К. ДРУЖБА-2","latitude":42.6439741066,"longitude":23.4122699162},{"id":"A1449","name":"РАЗКЛОНА ЗА АП ДРУЖБА","latitude":42.6496388898,"longitude":23.413713695},{"id":"A1749","name":"ТЕЦ ИЗТОК","latitude":42.6509815508,"longitude":23.413900533},{"id":"A0515","name":"ДЕПО ИСКЪР","latitude":42.6550517009,"longitude":23.4145148449},{"id":"A0974","name":"СОФИЯ МЕД АД","latitude":42.658257952,"longitude":23.4150543491},{"id":"A0033","name":"КВ. ГАРА ИСКЪР","latitude":42.6620515818,"longitude":23.4156100279},{"id":"A0826","name":"ГАРА ИСКЪР","latitude":42.6633442384,"longitude":23.4158495501},{"id":"A1096","name":"МОСТА НА Р. ИСКЪР КВ. АБДОВИЦА","latitude":42.6652129862,"longitude":23.4220381518},{"id":"A1784","name":"ТРЪНСКА МАХАЛА","latitude":42.6688167389,"longitude":23.4253262227},{"id":"A0527","name":"ДЕТСКИ ДОМ","latitude":42.6740066081,"longitude":23.4308730811},{"id":"A0814","name":"КВ. БУСМАНЦИ","latitude":42.6754882776,"longitude":23.4335033722},{"id":"A1641","name":"ПРОМИШЛЕНА ЗОНА БУСМАНЦИ","latitude":42.6722364182,"longitude":23.4389877749},{"id":"A1701","name":"ПРОМИШЛЕНА ЗОНА КАЗИЧЕНЕ","latitude":42.6676697487,"longitude":23.4476832864},{"id":"A0111","name":"БЕТОНОВ ВЪЗЕЛ КАЗИЧЕНЕ","latitude":42.6648670512,"longitude":23.4529260741},{"id":"A1622","name":"СТАДИОНА КАЗИЧЕНЕ","latitude":42.664678201,"longitude":23.4601035877},{"id":"A6640","name":"СЕЛО КАЗИЧЕНЕ","latitude":42.6621132486,"longitude":23.4645560347},{"id":"A6641","name":"КМЕТСТВО КАЗИЧЕНЕ","latitude":42.659555355,"longitude":23.4648205473},{"id":"A0819","name":"КВ. ВИДНИТЕ","latitude":42.6587290334,"longitude":23.4581884413},{"id":"A2725","name":"РАЗКЛОНА ЗА КВ. ВИДНИТЕ","latitude":42.6568234637,"longitude":23.4563540492},{"id":"A2726","name":"ЕЗЕРОТО - СЕЛО КАЗИЧЕНЕ","latitude":42.6578968097,"longitude":23.4547843813},{"id":"A2727","name":"ЦЕНТЪР КВ. ВИДНИТЕ","latitude":42.6593440463,"longitude":23.4537266521},{"id":"A2728","name":"ЕЗЕРОТО - СЕЛО КАЗИЧЕНЕ","latitude":42.6580209654,"longitude":23.4547380615},{"id":"A0456","name":"ГАРА КАЗИЧЕНЕ","latitude":42.6547498638,"longitude":23.4597633916},{"id":"A2243","name":"УЛ. ЦАР БОРИС ІІІ","latitude":42.6543262797,"longitude":23.4648824047},{"id":"A2758","name":"УЛ. ДИМИТЪР АШОВ","latitude":42.6568762514,"longitude":23.4656381795},{"id":"A6642","name":"КМЕТСТВО КАЗИЧЕНЕ","latitude":42.6600198294,"longitude":23.4648830698},{"id":"A6643","name":"СЕЛО КАЗИЧЕНЕ","latitude":42.6625320849,"longitude":23.464622389},{"id":"A0543","name":"РИТЕКС АД","latitude":42.6653162825,"longitude":23.4621123581},{"id":"A0548","name":"ПРОМИШЛЕНА ЗОНА КРИВИНА","latitude":42.6698115376,"longitude":23.46437142},{"id":"A0713","name":"ПАРК С.КРИВИНА","latitude":42.6743308962,"longitude":23.4654632837},{"id":"A2360","name":"УЛ. ЛЮЛЯК","latitude":42.6776573426,"longitude":23.4647154275},{"id":"A1240","name":"ЦЕНТЪРА С. КРИВИНА","latitude":42.6806515076,"longitude":23.4640540947},{"id":"A1542","name":"СЕЛО КРИВИНА","latitude":42.6823169558,"longitude":23.4624990226}]}},{"line":"TB288","direction0":{"name":"Метростанция Витоша - АВТОСТАНЦИЯ ГЕО МИЛЕВ","stops":[{"id":"TB2780","name":"Метростанция Витоша","latitude":42.6575357789,"longitude":23.3162933053},{"id":"TB0912","name":"МЕТРОСТАНЦИЯ ВИТОША","latitude":42.6598086312,"longitude":23.3176814584},{"id":"TB2313","name":"ХЛЕБОЗАВОДА","latitude":42.660343,"longitude":23.320717},{"id":"TB0976","name":"Ул. Сребърна","latitude":42.6591236744,"longitude":23.3268916891},{"id":"TB2781","name":"ЗООПАРКА","latitude":42.6576716182,"longitude":23.3279823704},{"id":"TB2849","name":"УЛ. ЧАВДАР МУТАФОВ","latitude":42.655669214,"longitude":23.3332504395},{"id":"TB0603","name":"Ж.К. ДИАНАБАД","latitude":42.6573716184,"longitude":23.3377130193},{"id":"TB0124","name":"БЛ. 22 Ж.К. ДИАНАБАД БЛ. 1","latitude":42.6581903647,"longitude":23.3425717322},{"id":"TB0316","name":"БУЛ. Д-Р Г. М. ДИМИТРОВ","latitude":42.6599533095,"longitude":23.3490032614},{"id":"TB1032","name":"МГУ СВ.ИВ.РИЛСКИ","latitude":42.6611480407,"longitude":23.3520067231},{"id":"TB2679","name":"МЕТРОСТАНЦИЯ Г. М. ДИМИТРОВ","latitude":42.6627069961,"longitude":23.356198676},{"id":"TB2351","name":"ТЕХНИЧЕСКА БИБЛИОТЕКА","latitude":42.6645042582,"longitude":23.3607109547},{"id":"TB0492","name":"РЕПУБЛИКАНСКИ НЕВРОДИСПАНСЕР","latitude":42.6669723826,"longitude":23.36519964},{"id":"TB1260","name":"ПЛОЩАД НА АВИАЦИЯТА","latitude":42.6699990286,"longitude":23.3695899715},{"id":"TB2615","name":"СПОРТНА ЗАЛА АРЕНА АРМЕЕЦ","latitude":42.6716193505,"longitude":23.3716974498},{"id":"TB1155","name":"СК ЦСКА","latitude":42.6752432268,"longitude":23.3755914441},{"id":"TB0053","name":"АВТОСТАНЦИЯ ГЕО МИЛЕВ","latitude":42.6775381931,"longitude":23.3706497347}]},"direction1":{"name":"АВТОСТАНЦИЯ ГЕО МИЛЕВ - Метростанция Витоша","stops":[{"id":"TB0052","name":"АВТОСТАНЦИЯ ГЕО МИЛЕВ","latitude":42.678057161,"longitude":23.3704440516},{"id":"TB1151","name":"СК ЦСКА","latitude":42.6744216918,"longitude":23.3752399352},{"id":"TB2616","name":"СПОРТНА ЗАЛА  АРЕНА АРМЕЕЦ","latitude":42.6713007841,"longitude":23.3705471755},{"id":"TB1259","name":"ПЛОЩАД НА АВИАЦИЯТА","latitude":42.6693220846,"longitude":23.36700023},{"id":"TB0494","name":"РЕПУБЛИКАНСКИ НЕВРОДИСПАНСЕР","latitude":42.6666081845,"longitude":23.3642896367},{"id":"TB2352","name":"ТЕХНИЧЕСКА БИБЛИОТЕКА","latitude":42.6642948593,"longitude":23.3595266662},{"id":"TB2542","name":"НСБАЛ ПО ОНКОЛОГИЯ","latitude":42.6630730656,"longitude":23.3564261032},{"id":"TB1033","name":"МГУ СВ.ИВ.РИЛСКИ","latitude":42.6611263971,"longitude":23.3514781203},{"id":"TB0315","name":"БУЛ. Д-Р Г. М. ДИМИТРОВ","latitude":42.6588929508,"longitude":23.3449785082},{"id":"TB0123","name":"БЛ. 22 Ж.К. ДИАНАБАД","latitude":42.6582490479,"longitude":23.3419960735},{"id":"TB2850","name":"УЛ. ЧАВДАР МУТАФОВ","latitude":42.6558876922,"longitude":23.3330839715},{"id":"TB2782","name":"УЛ. МОГИЛАТА","latitude":42.6567346935,"longitude":23.326944215},{"id":"TB2784","name":"МБАЛ Вита","latitude":42.6568395683,"longitude":23.3210322038},{"id":"TB2780","name":"Метростанция Витоша","latitude":42.6575357789,"longitude":23.3162933053}]}},{"line":"A805","direction0":{"name":"МЕТРОСТАНЦИЯ ВИТОША - СТУДЕНТСКИ ГРАД","stops":[{"id":"A0912","name":"МЕТРОСТАНЦИЯ ВИТОША","latitude":42.6598086312,"longitude":23.3176814584},{"id":"A2313","name":"ХЛЕБОЗАВОДА","latitude":42.660343,"longitude":23.320717},{"id":"A0976","name":"УЛ. СРЕБЪРНА","latitude":42.6591236744,"longitude":23.3268916891},{"id":"A2781","name":"ЗООПАРКА","latitude":42.6576716182,"longitude":23.3279823704},{"id":"A2381","name":"СТУДЕНТСКИ ГРАД","latitude":42.6452784353,"longitude":23.3336137337},{"id":"A2320","name":"ХОТЕЛ МАКСИ","latitude":42.6417350612,"longitude":23.3345626319},{"id":"A2881","name":"УЛ. БОЯН БОЯНОВ","latitude":42.6371393561,"longitude":23.3382567063},{"id":"A2879","name":"ДЕТСКА ГРАДИНА 190","latitude":42.637608905,"longitude":23.3417046225},{"id":"A2877","name":"УЛ. ТОДОР ЙОНЧЕВ","latitude":42.6401163974,"longitude":23.3436226016},{"id":"A2875","name":"БЛ. 64 Ж.К. СТУДЕНТСКИ ГРАД","latitude":42.641450895,"longitude":23.34464508},{"id":"A1606","name":"СК НА НСА","latitude":42.6440148651,"longitude":23.3452145381},{"id":"A1694","name":"СТУДЕНТСКИ ГРАД","latitude":42.6465616223,"longitude":23.3464524851}]},"direction1":{"name":"СТУДЕНТСКИ ГРАД - МЕТРОСТАНЦИЯ ВИТОША","stops":[{"id":"A1693","name":"СТУДЕНТСКИ ГРАД","latitude":42.646828609,"longitude":23.3466085735},{"id":"A1609","name":"СК НА НСА","latitude":42.6438098961,"longitude":23.3450238811},{"id":"A2874","name":"БЛ. 64 Ж.К. СТУДЕНТСКИ ГРАД","latitude":42.6423223939,"longitude":23.3449093501},{"id":"A2876","name":"УЛ. ТОДОР ЙОНЧЕВ","latitude":42.6404686249,"longitude":23.343696273},{"id":"A2878","name":"ДЕТСКА ГРАДИНА 190","latitude":42.638075957,"longitude":23.3418647533},{"id":"A2880","name":"УЛ. БОЯН БОЯНОВ","latitude":42.6371558812,"longitude":23.3387788752},{"id":"A0659","name":"ХОТЕЛ АМБАСАДОР","latitude":42.638489709,"longitude":23.3344109713},{"id":"A2321","name":"ХОТЕЛ МАКСИ","latitude":42.6429565021,"longitude":23.3344621836},{"id":"A2782","name":"УЛ. МОГИЛАТА","latitude":42.6567346935,"longitude":23.326944215},{"id":"A2784","name":"МБАЛ ВИТА","latitude":42.6568395683,"longitude":23.3210322038},{"id":"A2780","name":"МЕТРОСТАНЦИЯ ВИТОША","latitude":42.6575357789,"longitude":23.3162933053},{"id":"A0912","name":"МЕТРОСТАНЦИЯ ВИТОША","latitude":42.6598086312,"longitude":23.3176814584}]}},{"line":"A97","direction0":{"name":"СТЦ ИНТЕРПРЕД - ХОТЕЛ АМБАСАДОР","stops":[{"id":"A1109","name":"СТЦ ИНТЕРПРЕД","latitude":42.6707753403,"longitude":23.3515706337},{"id":"A0630","name":"Ж.К. ДИАНАБАД","latitude":42.6650455339,"longitude":23.3554082753},{"id":"A2542","name":"НСБАЛ ПО ОНКОЛОГИЯ","latitude":42.6630730656,"longitude":23.3564261032},{"id":"A1033","name":"МГУ СВ.ИВ.РИЛСКИ","latitude":42.6611263971,"longitude":23.3514781203},{"id":"A0315","name":"БУЛ. Д-Р Г. М. ДИМИТРОВ","latitude":42.6588929508,"longitude":23.3449785082},{"id":"A0123","name":"БЛ. 22 Ж.К. ДИАНАБАД","latitude":42.6582490479,"longitude":23.3419960735},{"id":"A0602","name":"Ж.К. ДИАНАБАД","latitude":42.6570707942,"longitude":23.3362852833},{"id":"A1087","name":"МОСТА КВ. ВИТОША","latitude":42.6548275166,"longitude":23.3360801474},{"id":"A0822","name":"КВ. ВИТОША","latitude":42.6503425346,"longitude":23.3355749319},{"id":"A2381","name":"СТУДЕНТСКИ ГРАД","latitude":42.6452784353,"longitude":23.3336137337},{"id":"A2509","name":"ХОТЕЛ МАКСИ","latitude":42.6429527999,"longitude":23.3366210567},{"id":"A2508","name":"БЛ. 60 СТУДЕНТСКИ ГРАД","latitude":42.6430422369,"longitude":23.3400359214},{"id":"A2874","name":"БЛ. 64 Ж.К. СТУДЕНТСКИ ГРАД","latitude":42.6423223939,"longitude":23.3449093501},{"id":"A2876","name":"УЛ. ТОДОР ЙОНЧЕВ","latitude":42.6404686249,"longitude":23.343696273},{"id":"A2878","name":"ДЕТСКА ГРАДИНА 190","latitude":42.638075957,"longitude":23.3418647533},{"id":"A2880","name":"УЛ. БОЯН БОЯНОВ","latitude":42.6371558812,"longitude":23.3387788752},{"id":"A0659","name":"ХОТЕЛ АМБАСАДОР","latitude":42.638489709,"longitude":23.3344109713}]},"direction1":{"name":"ХОТЕЛ АМБАСАДОР - МЕТРОСТАНЦИЯ ФР. ЖОЛИО-КЮРИ","stops":[{"id":"A0659","name":"ХОТЕЛ АМБАСАДОР","latitude":42.638489709,"longitude":23.3344109713},{"id":"A2321","name":"ХОТЕЛ МАКСИ","latitude":42.6429565021,"longitude":23.3344621836},{"id":"A2382","name":"СТУДЕНТСКИ ГРАД","latitude":42.6460129339,"longitude":23.3343592649},{"id":"A0821","name":"КВ. ВИТОША","latitude":42.6515057246,"longitude":23.3358760928},{"id":"A1076","name":"МОСТА КВ. ВИТОША","latitude":42.6554527233,"longitude":23.3363215575},{"id":"A0603","name":"Ж.К. ДИАНАБАД","latitude":42.6573716184,"longitude":23.3377130193},{"id":"A0124","name":"БЛ. 22 Ж.К. ДИАНАБАД БЛ. 1","latitude":42.6581903647,"longitude":23.3425717322},{"id":"A0316","name":"БУЛ. Д-Р Г. М. ДИМИТРОВ","latitude":42.6599533095,"longitude":23.3490032614},{"id":"A1032","name":"МГУ СВ.ИВ.РИЛСКИ","latitude":42.6611480407,"longitude":23.3520067231},{"id":"A2679","name":"МЕТРОСТАНЦИЯ Г. М. ДИМИТРОВ","latitude":42.6627069961,"longitude":23.356198676},{"id":"A0627","name":"Ж.К. ДИАНАБАД","latitude":42.6652593861,"longitude":23.3554200757},{"id":"A1112","name":"СТЦ ИНТЕРПРЕД","latitude":42.6692994737,"longitude":23.35253818},{"id":"A2882","name":"МЕТРОСТАНЦИЯ ФР. ЖОЛИО-КЮРИ","latitude":42.671922724,"longitude":23.3503726038}]}},{"line":"A101","direction0":{"name":"ЦЕНТРАЛНА ГАРА - ФОНДОВИ ЖИЛИЩА","stops":[{"id":"A1328","name":"ЦЕНТРАЛНА ГАРА","latitude":42.7106977871,"longitude":23.31851149},{"id":"A1326","name":"УЛ. КЛОКОТНИЦА","latitude":42.7085197001,"longitude":23.3180695309},{"id":"A0382","name":"БУЛ. ХРИСТО БОТЕВ","latitude":42.7057613701,"longitude":23.3168798065},{"id":"A2081","name":"УЛ. ОПЪЛЧЕНСКА","latitude":42.7060320405,"longitude":23.3129911347},{"id":"A2101","name":"УЛ. ОХРИД","latitude":42.7098664214,"longitude":23.3139290999},{"id":"A0323","name":"БУЛ. КНЯГИНЯ МАРИЯ ЛУИЗА","latitude":42.712182939,"longitude":23.3149258405},{"id":"A1114","name":"НАДЛЕЗ НАДЕЖДА","latitude":42.7148619678,"longitude":23.3118620435},{"id":"A1384","name":"БУЛ. ИЛИЯНЦИ-ПОДЛЕЗА","latitude":42.7218242397,"longitude":23.3141306436},{"id":"A2519","name":"УЛ. ПРОСВЕТА","latitude":42.7245051328,"longitude":23.3162565243},{"id":"A1000","name":"УЛ. ЛОКОМОТИВ","latitude":42.72898704,"longitude":23.3192319728},{"id":"A0699","name":"Ж.П.ПРЕЛЕЗ","latitude":42.733979187,"longitude":23.3231245768},{"id":"A0110","name":"БЕТОНОВ ВЪЗЕЛ","latitude":42.7364568617,"longitude":23.3251098172},{"id":"A1042","name":"МЕТАЛСНАБ ХОЛДИНГ","latitude":42.7410948668,"longitude":23.3284901671},{"id":"A2485","name":"СОФГЕОПРОУЧВАНЕ","latitude":42.743536889,"longitude":23.3295152695},{"id":"A0404","name":"БУЛАВТО","latitude":42.7455366413,"longitude":23.3302410919},{"id":"A2293","name":"ФОНДОВИ ЖИЛИЩА","latitude":42.7537412479,"longitude":23.3292045115}]},"direction1":{"name":"ФОНДОВИ ЖИЛИЩА - ЦЕНТРАЛНА ГАРА","stops":[{"id":"A2292","name":"ФОНДОВИ ЖИЛИЩА","latitude":42.7531595666,"longitude":23.3291245808},{"id":"A0405","name":"БУЛАВТО","latitude":42.7454179908,"longitude":23.3301211929},{"id":"A2484","name":"СОФГЕОПРОУЧВАНЕ","latitude":42.7431605573,"longitude":23.3292853865},{"id":"A1043","name":"МЕТАЛСНАБ ХОЛДИНГ","latitude":42.7410767534,"longitude":23.3283626611},{"id":"A0115","name":"БЕТОНОВ ВЪЗЕЛ","latitude":42.7363941326,"longitude":23.3248383235},{"id":"A0700","name":"Ж.П.ПРЕЛЕЗ","latitude":42.7341038463,"longitude":23.3230153114},{"id":"A1001","name":"УЛ. ЛОКОМОТИВ","latitude":42.7284264303,"longitude":23.3186624734},{"id":"A2143","name":"УЛ. ПРОСВЕТА","latitude":42.7245259861,"longitude":23.3160179123},{"id":"A6430","name":"МЕТРОСТАНЦИЯ КН. МАРИЯ ЛУИЗА","latitude":42.7138410759,"longitude":23.3131426036},{"id":"A2079","name":"УЛ. ОПЪЛЧЕНСКА","latitude":42.7125717571,"longitude":23.3162713308},{"id":"A1328","name":"ЦЕНТРАЛНА ГАРА","latitude":42.7106977871,"longitude":23.31851149}]}},{"line":"A310","direction0":{"name":"ПЛ. СТОЧНА ГАРА - Ж.К. ЛЮЛИН-5","stops":[{"id":"A1311","name":"ПЛ. СТОЧНА ГАРА","latitude":42.7050587196,"longitude":23.3309237046},{"id":"A1999","name":"УЛ. КНЯЗ БОРИС I","latitude":42.7053911446,"longitude":23.3221639726},{"id":"A0382","name":"БУЛ. ХРИСТО БОТЕВ","latitude":42.7057613701,"longitude":23.3168798065},{"id":"A2082","name":"УЛ. ОПЪЛЧЕНСКА","latitude":42.7061702441,"longitude":23.3110471944},{"id":"A0803","name":"Ж.К. БАНИШОРА","latitude":42.7063988067,"longitude":23.3073394448},{"id":"A0325","name":"БУЛ. К. ВЕЛИЧКОВ","latitude":42.7069918688,"longitude":23.2999782167},{"id":"A2096","name":"УЛ. ОРЯХОВО","latitude":42.710970719,"longitude":23.2919917926},{"id":"A1253","name":"ЗАПАДЕН ПАРК","latitude":42.7149864406,"longitude":23.2840337},{"id":"A2092","name":"УЛ. ОРИОН","latitude":42.7171333008,"longitude":23.2782697497},{"id":"A0138","name":"БЛ. 135 Ж.К. ЛЮЛИН-10","latitude":42.7151102649,"longitude":23.2764430084},{"id":"A1912","name":"УЛ. ГОЦЕ ДЕЛЧЕВ","latitude":42.7125552583,"longitude":23.2738657338},{"id":"A2419","name":"БУЛ. ЦАРИЦА ЙОАНА","latitude":42.7114042288,"longitude":23.2713929565},{"id":"A1107","name":"БЛ. 703 Ж.К. ЛЮЛИН-7","latitude":42.7099808968,"longitude":23.265114451},{"id":"A1961","name":"УЛ. ИНДИРА ГАНДИ","latitude":42.7095885748,"longitude":23.2599649745},{"id":"A2793","name":"БЛ. 648 Ж.К. ЛЮЛИН 6","latitude":42.7089259864,"longitude":23.2554248883},{"id":"A0244","name":"БЛ. 630 Ж.К. ЛЮЛИН-6","latitude":42.7087051237,"longitude":23.2518034062},{"id":"A0241","name":"БЛ. 620 Ж.К. ЛЮЛИН-6","latitude":42.7088065934,"longitude":23.2473955569},{"id":"A2610","name":"БУЛ. Д-Р ПЕТЪР ДЕРТЛИЕВ","latitude":42.7102197217,"longitude":23.2456891654},{"id":"A1705","name":"МАГАЗИН ВИТОША","latitude":42.7131405027,"longitude":23.2472455952},{"id":"A1982","name":"УЛ. КАП. В. ДАНАДЖИЕВ","latitude":42.7145400738,"longitude":23.2447016244},{"id":"A2133","name":"УЛ. ПОРУЧИК ГР. ЗАГОРСКИ","latitude":42.718410739,"longitude":23.2398551102},{"id":"A0657","name":"Ж.К. ЛЮЛИН-5","latitude":42.7164761894,"longitude":23.2376659155}]},"direction1":{"name":"Ж.К. ЛЮЛИН-5 - ПЛ. СТОЧНА ГАРА","stops":[{"id":"A0657","name":"Ж.К. ЛЮЛИН-5","latitude":42.7164761894,"longitude":23.2376659155},{"id":"A2132","name":"УЛ. ПОРУЧИК ГР. ЗАГОРСКИ","latitude":42.7178452947,"longitude":23.2406074328},{"id":"A1981","name":"УЛ. КАП. В. ДАНАДЖИЕВ","latitude":42.713844132,"longitude":23.2456931304},{"id":"A1704","name":"МАГАЗИН ВИТОША","latitude":42.7121577599,"longitude":23.2471884737},{"id":"A2766","name":"БУЛ. Д-Р ПЕТЪР ДЕРТЛИЕВ","latitude":42.7109196608,"longitude":23.2459719727},{"id":"A0242","name":"БЛ. 620 Ж.К. ЛЮЛИН-6","latitude":42.7086472814,"longitude":23.2483516494},{"id":"A0243","name":"БЛ. 630 Ж.К. ЛЮЛИН-6","latitude":42.7085541572,"longitude":23.2519124251},{"id":"A2794","name":"БЛ. 648 Ж.К. ЛЮЛИН 6","latitude":42.7089019174,"longitude":23.255842263},{"id":"A1960","name":"УЛ. ИНДИРА ГАНДИ","latitude":42.7095461424,"longitude":23.260385914},{"id":"A1108","name":"БЛ. 703 Ж.К. ЛЮЛИН-7","latitude":42.7100124749,"longitude":23.2659527114},{"id":"A2418","name":"БУЛ. ЦАРИЦА ЙОАНА","latitude":42.7113806013,"longitude":23.2718940301},{"id":"A1911","name":"УЛ. ГОЦЕ ДЕЛЧЕВ","latitude":42.7127188073,"longitude":23.2744794802},{"id":"A0136","name":"БЛ. 135 Ж.К. ЛЮЛИН-10","latitude":42.7150201582,"longitude":23.2767184372},{"id":"A2093","name":"УЛ. ОРИОН","latitude":42.7170883121,"longitude":23.2795121308},{"id":"A1251","name":"ЗАПАДЕН ПАРК","latitude":42.7148836267,"longitude":23.2836770932},{"id":"A2097","name":"УЛ. ОРЯХОВО","latitude":42.7103201917,"longitude":23.2928036504},{"id":"A0328","name":"БУЛ. К. ВЕЛИЧКОВ","latitude":42.7066899284,"longitude":23.299918737},{"id":"A0804","name":"Ж.К. БАНИШОРА","latitude":42.7058326971,"longitude":23.3073524981},{"id":"A2087","name":"УЛ. ОПЪЛЧЕНСКА","latitude":42.7053827349,"longitude":23.3134857162},{"id":"A0385","name":"БУЛ. ХРИСТО БОТЕВ","latitude":42.705021683,"longitude":23.3186491974},{"id":"A1998","name":"УЛ. КНЯЗ БОРИС I","latitude":42.7047216747,"longitude":23.3228384183},{"id":"A1321","name":"ПЛ. СТОЧНА ГАРА","latitude":42.7044227229,"longitude":23.3305530643},{"id":"A1311","name":"ПЛ. СТОЧНА ГАРА","latitude":42.7050587196,"longitude":23.3309237046}]}},{"line":"A67","direction0":{"name":"КВ. СИМЕОНОВО - СЕМИНАРИЯТА","stops":[{"id":"A0899","name":"КВ. СИМЕОНОВО","latitude":42.6123149255,"longitude":23.3389286917},{"id":"A2285","name":"64-ТО ОУ","latitude":42.616373318,"longitude":23.3374733886},{"id":"A0422","name":"УЛ. ЗЛАТЕН ВЕК","latitude":42.6227014405,"longitude":23.3327703247},{"id":"A1713","name":"МОСТА НА СУХАТА РЕКА","latitude":42.6292959302,"longitude":23.3333672307},